City,Country,Quality of Life Index,Purchasing Power Index,Safety Index,Healthcare Index,Cost of Living Index,Property Price to Income Ratio,Traffic Commute Time Index,Pollution Index,Climate Index,Year,Continent,Latitude,Longitude
Raleigh,United States,207.78,144.12,65.53,75.64,68.2,3.05,32.79,21.88,83.88,2022,North America,35.7803977,-78.6390989
Canberra,Australia,207.41,105.11,77.53,82.17,75.94,5.37,23.91,13.37,82.72,2022,Oceania,-35.2975906,149.1012676
Adelaide,Australia,204.87,104.24,70.71,80.75,76.59,4.26,24.18,18.17,94.96,2022,Oceania,-34.9281805,138.5999312
Columbus,United States,201.4,151.29,56.58,73.95,69.7,4.0,24.94,25.96,71.29,2022,North America,39.9622601,-83.0007065
Zurich,Switzerland,200.89,129.79,83.22,74.21,131.24,7.94,32.95,17.92,81.48,2022,Europe,47.3744489,8.5410422
Madison,United States,199.18,132.13,66.0,77.78,67.32,3.52,24.18,18.98,51.64,2022,North America,43.074761,-89.3837613
Austin,United States,198.91,158.21,62.94,71.04,66.5,3.53,34.21,36.5,82.08,2022,North America,30.2711286,-97.7436995
Charlotte,United States,197.34,144.88,54.7,74.63,70.06,2.51,34.73,28.44,84.05,2022,North America,35.2272086,-80.8430827
Oklahoma City,United States,196.15,127.95,50.69,75.78,64.94,2.88,25.0,22.02,77.61,2022,North America,35.4729886,-97.5170536
Basel,Switzerland,195.79,111.53,79.52,78.56,130.93,8.37,20.79,23.62,82.82,2022,Europe,47.5581077,7.5878261
Wellington,New Zealand,194.97,85.49,70.72,74.96,76.66,6.92,27.74,13.01,97.68,2022,Oceania,-41.2887953,174.7772114
Richmond,United States,193.09,130.94,53.5,73.86,67.75,4.15,21.96,31.14,81.27,2022,North America,37.5385087,-77.43428
Geneva,Switzerland,193.01,120.6,73.84,74.34,114.05,9.41,25.49,23.79,82.61,2022,Europe,46.2017559,6.1466014
Dallas,United States,192.67,170.66,49.71,66.2,67.85,2.12,35.16,41.61,81.85,2022,North America,32.7762719,-96.7968559
The Hague (Den Haag),Netherlands,191.44,88.51,74.64,77.95,73.94,7.2,28.87,20.46,90.61,2022,Europe,52.0799838,4.3113461
Buffalo,United States,191.01,124.36,55.5,76.92,74.29,1.52,23.8,27.82,66.43,2022,North America,42.8867166,-78.8783922
Brisbane,Australia,190.34,103.8,65.19,82.09,79.44,6.34,39.83,22.66,98.07,2022,Oceania,-27.4689682,153.0234991
Seattle,United States,189.58,145.39,49.54,74.01,88.52,4.52,41.85,28.84,91.73,2022,North America,47.6038321,-122.3300624
Perth,Australia,189.55,110.04,58.07,77.79,77.29,5.44,35.62,23.31,95.71,2022,Oceania,-31.9558964,115.8605801
San Diego,United States,189.38,127.94,63.29,70.87,75.47,6.33,33.8,35.05,97.08,2022,North America,32.7174202,-117.1627728
Eindhoven,Netherlands,188.1,86.92,75.71,72.65,78.24,6.51,25.59,22.37,85.38,2022,Europe,51.4392648,5.478633
San Jose,United States,188.09,157.39,54.42,73.38,73.71,6.38,38.26,45.58,95.53,2022,North America,37.3361905,-121.890583
Victoria,Canada,186.37,89.12,63.33,69.48,76.65,8.09,28.15,14.62,92.52,2022,North America,48.4283182,-123.3649533
Copenhagen,Denmark,185.34,90.67,72.67,78.21,88.34,9.15,28.49,21.34,83.74,2022,Europe,55.6867243,12.5700724
Kansas City,United States,184.4,127.2,42.26,75.4,66.07,2.2,26.11,31.41,75.08,2022,North America,39.100105,-94.5781416
Edinburgh,United Kingdom,182.05,88.03,69.96,80.81,73.15,8.48,28.85,27.37,84.01,2022,Europe,55.9533456,-3.1883749
Dusseldorf,Germany,182.03,109.99,66.56,73.04,68.28,9.51,30.3,32.66,86.37,2022,Europe,51.2254018,6.7763137
Vienna,Austria,181.79,79.56,73.53,78.6,68.36,13.96,26.29,17.32,81.77,2022,Europe,48.2083537,16.3725042
San Antonio,United States,181.72,137.67,51.17,70.59,62.59,2.1,30.38,45.71,80.58,2022,North America,29.4246002,-98.4951405
Jacksonville,United States,181.65,144.3,44.36,69.66,69.51,2.94,35.33,41.74,87.81,2022,North America,30.3321838,-81.655651
Reykjavik,Iceland,181.5,74.84,78.24,67.15,97.61,7.66,19.83,15.01,68.81,2022,Europe,64.145981,-21.9422367
Sydney,Australia,180.09,104.52,66.34,78.62,83.21,10.39,43.38,27.43,97.07,2022,Oceania,-33.8698439,151.2082848
Munich,Germany,178.68,95.16,82.49,77.84,77.52,16.24,32.92,24.96,75.98,2022,Europe,48.1371079,11.5753822
Luxembourg,Luxembourg,178.53,100.19,70.28,72.79,82.99,13.52,34.1,21.72,82.62,2022,Europe,49.6112768,6.129799
Quebec City,Canada,178.42,87.22,84.78,72.76,68.99,4.93,27.53,27.55,47.98,2022,North America,46.8183175,-71.2143518
Cambridge,United Kingdom,178.04,92.85,69.82,74.92,73.05,8.89,33.56,32.18,91.37,2022,Europe,52.2055314,0.1186637
Helsinki,Finland,178.04,83.51,74.51,77.74,77.17,13.14,29.23,13.76,62.79,2022,Europe,60.1674881,24.9427473
Houston,United States,177.62,172.98,36.23,71.77,63.94,2.04,42.02,56.2,85.53,2022,North America,29.7589382,-95.3676974
Melbourne,Australia,177.24,102.16,55.94,76.37,76.76,8.42,40.46,25.87,94.3,2022,Oceania,-37.8142176,144.9631608
Calgary,Canada,177.23,114.16,64.35,75.53,73.4,3.66,29.97,23.8,33.09,2022,North America,51.0460954,-114.065465
Cincinnati,United States,177.11,125.17,51.24,68.77,64.39,2.26,25.07,43.92,73.24,2022,North America,39.1014537,-84.5124602
Portland,United States,177.0,108.09,48.52,73.18,76.83,4.55,33.47,30.98,89.56,2022,North America,45.5202471,-122.6741949
Gothenburg,Sweden,176.79,101.17,52.09,68.67,72.97,9.04,25.76,20.7,77.49,2022,Europe,57.7072326,11.9670171
Orlando,United States,176.6,123.32,48.59,63.82,68.1,3.09,36.76,35.03,87.23,2022,North America,28.5421109,-81.3790304
Ottawa,Canada,176.08,94.3,73.59,74.6,73.15,5.58,31.15,21.93,44.46,2022,North America,45.4211435,-75.6900574
Muscat,Oman,176.0,86.53,79.09,59.41,51.24,4.59,20.8,36.31,67.22,2022,Asia,23.61515,58.5912467
Spokane,United States,175.82,112.36,45.22,63.66,68.11,5.14,23.73,23.63,67.12,2022,North America,47.6571934,-117.4235106
Belfast,United Kingdom,175.41,91.62,55.98,72.56,65.74,4.07,38.92,27.65,90.84,2022,Europe,54.596391,-5.9301829
Boston,United States,174.74,115.72,63.09,75.84,85.47,8.24,45.36,26.83,71.73,2022,North America,42.3602534,-71.0582912
Amsterdam,Netherlands,174.25,94.45,66.37,68.97,80.82,10.06,29.72,30.68,87.45,2022,Europe,52.3727598,4.8936041
Boise,United States,173.95,82.63,63.92,81.26,68.29,6.94,22.26,30.55,65.11,2022,North America,43.6166163,-116.200886
Saint Louis,United States,173.05,123.2,29.44,80.85,66.83,1.88,27.23,39.04,74.75,2022,North America,38.6264256,-90.1995853
Cleveland,United States,173.01,125.32,35.94,80.36,75.41,1.42,33.74,38.65,73.11,2022,North America,41.4996562,-81.6936813
Frankfurt,Germany,172.95,106.89,55.65,74.85,72.78,11.53,25.01,36.74,84.72,2022,Europe,50.1106444,8.6820917
Valencia,Spain,172.83,70.04,74.91,81.17,52.97,7.46,29.35,43.42,93.84,2022,Europe,39.4697065,-0.3763353
Liverpool,United Kingdom,172.7,90.09,52.93,85.71,71.39,10.44,32.64,30.72,90.87,2022,Europe,53.4071991,-2.99168
Vancouver,Canada,172.23,87.68,62.84,75.07,76.61,11.89,36.9,25.01,91.15,2022,North America,49.2608724,-123.113952
Tampa,United States,172.01,98.28,52.13,68.3,75.83,3.94,35.84,29.2,84.67,2022,North America,27.9477595,-82.458444
Albuquerque,United States,171.89,122.44,29.34,64.29,63.44,2.86,25.12,27.09,67.06,2022,North America,35.0841034,-106.650985
Glasgow,United Kingdom,171.71,96.42,54.67,83.24,68.76,8.72,32.75,35.67,84.78,2022,Europe,55.8609825,-4.2488787
Tallinn,Estonia,171.17,64.89,77.11,71.88,55.75,9.69,26.62,22.41,64.28,2022,Europe,59.4372155,24.7453688
Indianapolis,United States,170.99,121.53,42.42,73.25,67.14,2.1,29.54,41.78,69.92,2022,North America,39.7683331,-86.1583502
Hamburg,Germany,170.92,101.1,57.53,75.18,72.01,10.9,34.69,30.74,82.75,2022,Europe,53.550341,10.000654
Rotterdam,Netherlands,170.69,91.36,63.59,76.26,76.24,6.48,30.03,42.5,87.89,2022,Europe,51.9244424,4.47775
Pittsburgh,United States,170.56,115.5,60.91,75.58,82.36,2.32,38.06,46.17,72.13,2022,North America,40.4416941,-79.9900861
Nashville,United States,170.5,111.46,53.95,63.95,73.62,3.65,38.98,35.71,83.02,2022,North America,36.1622767,-86.7742984
Stuttgart,Germany,169.47,109.02,69.47,72.11,68.38,10.45,34.12,45.58,81.07,2022,Europe,48.7784485,9.1800132
Anchorage,United States,169.34,118.63,38.8,61.96,91.23,2.66,27.15,16.2,41.61,2022,North America,61.2163129,-149.894852
Minneapolis,United States,169.2,114.68,45.22,78.9,79.08,3.78,36.31,26.22,49.46,2022,North America,44.9772995,-93.2654692
Edmonton,Canada,169.14,109.54,56.59,78.43,72.86,3.52,29.32,29.37,32.11,2022,North America,53.535411,-113.507996
Salt Lake City,United States,169.08,140.61,67.29,71.46,64.95,6.25,35.07,61.93,66.52,2022,North America,40.7596198,-111.8867975
Halifax,Canada,168.85,87.92,59.24,69.29,74.91,5.29,30.46,22.96,58.99,2022,North America,44.648618,-63.5859487
Cork,Ireland,168.45,84.45,63.73,56.59,76.15,5.53,34.57,28.99,89.78,2022,Europe,51.897077,-8.4654674
Graz,Austria,168.27,79.03,75.0,78.96,74.59,8.93,27.17,40.63,73.93,2022,Europe,47.0708678,15.4382786
Berlin,Germany,167.49,105.86,57.95,69.18,68.94,9.42,34.03,38.93,83.35,2022,Europe,52.5170365,13.3888599
Kaunas,Lithuania,167.09,64.93,62.01,74.09,44.74,8.83,24.04,25.76,68.94,2022,Europe,54.8982139,23.9044817
Denver,United States,166.95,129.98,54.99,69.41,75.16,4.15,36.24,43.92,56.28,2022,North America,39.7392364,-104.9848623
Ljubljana,Slovenia,166.8,60.19,78.55,66.38,57.18,13.32,27.55,23.47,76.11,2022,Europe,46.0500268,14.5069289
Baltimore,United States,166.28,136.13,24.96,77.3,73.56,1.94,31.55,50.38,81.24,2022,North America,39.2908816,-76.610759
Atlanta,United States,165.8,130.67,36.98,68.65,76.6,3.81,41.86,44.88,89.73,2022,North America,33.7489924,-84.3902644
Vilnius,Lithuania,165.8,62.14,72.67,72.86,46.94,12.2,27.93,23.82,66.59,2022,Europe,54.6870458,25.2829111
Reno,United States,165.75,96.91,55.37,61.23,70.67,4.55,25.1,32.67,62.28,2022,North America,39.5261206,-119.8126581
Oslo,Norway,165.48,85.18,65.62,77.99,102.33,11.01,31.21,23.63,59.99,2022,Europe,59.9133301,10.7389701
Abu Dhabi,United Arab Emirates,165.1,75.22,88.14,72.44,57.89,4.47,26.61,43.65,43.89,2022,Asia,24.4538352,54.3774014
Sacramento,United States,164.71,101.43,51.42,69.04,77.88,7.75,26.99,45.55,90.64,2022,North America,38.5810606,-121.493895
Tucson,United States,164.48,83.69,49.81,60.77,64.34,4.05,28.29,26.7,72.66,2022,North America,32.2228765,-110.9748477
Milwaukee,United States,164.04,109.19,33.06,66.8,71.56,2.51,28.54,28.89,60.96,2022,North America,43.0349931,-87.922497
Stockholm,Sweden,163.76,95.42,53.92,66.42,78.92,12.78,35.38,19.2,69.67,2022,Europe,59.3251172,18.0710935
Mississauga,Canada,163.69,99.7,57.35,69.82,73.12,9.8,38.25,24.2,58.72,2022,North America,43.5896231,-79.6443879
Washington,United States,163.65,121.83,41.29,69.62,83.74,5.45,40.49,40.06,81.62,2022,North America,38.8950368,-77.0365427
Oakland,United States,163.54,111.73,34.43,77.4,92.93,7.2,37.69,39.19,96.4,2022,North America,37.8044557,-122.2713563
Tokyo,Japan,163.1,88.58,76.41,80.46,85.61,13.28,42.19,42.31,85.26,2022,Asia,35.6828387,139.7594549
Auckland,New Zealand,163.06,79.21,54.41,72.9,80.19,12.1,37.3,29.29,99.89,2022,Oceania,-36.852095,174.7631803
Bristol,United Kingdom,162.9,84.81,59.46,74.36,71.32,9.34,28.78,43.71,88.51,2022,Europe,51.47091115,-2.579033402570841
Dubai,United Arab Emirates,162.82,101.11,83.7,67.89,64.32,4.43,37.9,50.36,50.27,2022,Asia,25.2653471,55.2924914
Queretaro,Mexico,162.64,51.02,63.86,77.05,35.4,7.26,32.95,37.08,94.46,2022,Latin America,20.5927744,-100.3902245
Prague,Czech Republic,161.33,71.96,75.83,74.45,51.78,17.65,32.39,34.53,80.67,2022,Europe,50.0596288,14.446459273258007
Leeds,United Kingdom,160.79,88.49,56.29,82.58,67.57,11.01,31.45,45.73,84.59,2022,Europe,53.7974185,-1.5437941
Honolulu,United States,160.78,89.24,54.02,72.53,103.65,7.2,41.19,36.83,95.33,2022,North America,21.2890997,-157.717299
Cologne,Germany,159.18,89.1,56.84,73.1,69.59,10.09,36.39,40.74,84.85,2022,Europe,50.938361,6.959974
Phoenix,United States,158.95,135.94,48.27,67.15,69.37,3.77,32.62,55.98,53.76,2022,North America,33.4484367,-112.074141
Zagreb,Croatia,158.79,55.08,78.61,64.61,49.88,13.34,31.44,32.6,82.19,2022,Europe,45.8131847,15.9771774
Antwerp,Belgium,157.55,90.25,63.57,80.53,71.33,5.53,38.32,58.8,85.42,2022,Europe,51.2211097,4.3997081
Brno,Czech Republic,157.25,65.14,73.7,74.89,49.29,14.83,26.13,43.26,78.17,2022,Europe,49.1922443,16.6113382
Bursa,Turkey,157.15,39.95,71.9,78.58,31.48,8.0,33.0,44.54,93.39,2022,Asia,40.1827657,29.0677305
Montreal,Canada,157.0,89.93,69.64,64.19,70.6,7.93,39.48,33.29,52.37,2022,North America,45.5031824,-73.5698065
San Francisco,United States,156.93,133.16,41.41,64.56,93.91,7.12,51.23,49.74,97.26,2022,North America,37.7790262,-122.419906
Madrid,Spain,156.49,74.83,70.29,80.02,59.01,10.94,35.35,51.86,85.47,2022,Europe,40.4167047,-3.7035825
Toronto,Canada,156.34,101.29,58.86,75.94,74.29,10.58,45.1,37.81,65.35,2022,North America,43.6534817,-79.3839347
Kelowna,Canada,156.24,77.45,41.74,74.93,69.73,6.29,28.93,26.59,59.65,2022,North America,49.8879177,-119.4959025
Porto,Portugal,156.11,44.87,64.56,75.2,49.37,13.3,29.51,35.12,96.61,2022,Europe,41.1494512,-8.6107884
Las Vegas,United States,154.66,124.83,44.88,56.1,68.34,3.47,27.39,52.93,57.4,2022,North America,36.1672559,-115.148516
Chicago,United States,154.23,135.26,34.05,65.41,77.06,3.6,41.91,49.26,66.11,2022,North America,41.8755616,-87.6244212
Miami,United States,154.14,93.71,47.19,63.54,78.0,5.32,43.02,39.43,85.69,2022,North America,25.7741728,-80.19362
Mangalore,India,153.22,47.91,74.69,78.16,23.73,7.64,31.84,46.25,66.65,2022,Asia,12.8698101,74.8430082
Doha,Qatar,152.68,89.93,86.17,73.48,62.9,6.26,30.29,60.12,36.03,2022,Asia,25.2856329,51.5264162
Timisoara,Romania,152.49,54.26,76.83,71.28,36.16,10.1,23.6,56.96,82.05,2022,Europe,45.7538355,21.2257474
Lisbon,Portugal,151.93,48.26,71.12,72.38,51.7,17.75,35.93,35.8,98.59,2022,Europe,38.7077507,-9.1365919
Singapore,Singapore,151.59,91.34,72.36,71.07,83.98,17.49,41.22,33.31,57.45,2022,Asia,1.2899175,103.8519072
Philadelphia,United States,151.12,115.61,37.62,69.38,79.19,3.96,40.26,53.49,77.98,2022,North America,39.9527237,-75.1635262
Cluj-Napoca,Romania,150.39,53.12,78.25,63.69,40.16,12.33,29.24,43.92,74.35,2022,Europe,46.769379,23.5899542
Regina,Canada,150.35,104.02,46.67,66.91,69.44,4.0,17.2,39.86,14.28,2022,North America,50.44876,-104.61731
Split,Croatia,149.95,42.48,65.12,64.68,51.59,20.22,16.87,35.61,96.26,2022,Europe,43.5116383,16.4399659
Lyon,France,149.16,82.65,50.28,78.28,77.21,9.11,35.92,52.6,88.51,2022,Europe,45.7578137,4.8320114
Manchester,United Kingdom,148.58,91.33,43.97,78.62,73.14,7.35,40.79,52.96,86.95,2022,Europe,53.4794892,-2.2451148
Riyadh,Saudi Arabia,148.26,92.73,73.51,64.55,53.85,2.78,30.01,64.58,44.45,2022,Asia,24.638916,46.7160104
Bratislava,Slovakia,147.56,62.63,69.71,57.5,49.44,14.56,31.16,40.75,80.72,2022,Europe,48.1516988,17.1093063
Limassol,Cyprus,147.52,55.84,67.37,49.69,65.26,8.07,20.14,53.43,95.74,2022,Asia,34.6852901,33.0332657
Birmingham,United Kingdom,147.34,81.78,38.47,73.48,67.25,7.77,33.13,48.24,87.66,2022,Europe,52.4796992,-1.9026911
Cape Town,South Africa,146.98,75.83,26.6,70.35,40.98,5.83,43.09,39.07,98.19,2022,Africa,-33.928992,18.417396
Winnipeg,Canada,146.93,101.59,42.18,69.16,70.33,3.54,31.46,36.57,24.67,2022,North America,49.8955367,-97.1384584
Riga,Latvia,146.62,52.82,62.22,61.22,51.54,8.79,32.15,37.49,74.7,2022,Europe,56.9493977,24.1051846
Haifa,Israel,146.32,77.61,72.54,74.27,87.44,8.44,29.7,74.79,93.57,2022,Asia,32.8191218,34.9983856
Tel Aviv-Yafo,Israel,146.14,70.22,73.81,74.61,94.49,20.71,36.99,47.01,93.88,2022,Asia,32.0852997,34.7818064
Manama,Bahrain,144.68,62.59,78.92,66.42,54.3,6.19,30.75,61.24,64.31,2022,Asia,26.2235041,50.5822436
Jeddah (Jiddah),Saudi Arabia,143.18,76.08,71.01,58.72,52.57,3.24,28.71,68.18,66.17,2022,Asia,21.48371595,39.17290852271105
Dublin,Ireland,142.63,81.82,48.3,51.61,79.05,8.11,40.41,40.95,85.89,2022,Europe,53.3497645,-6.2602732
Brussels,Belgium,142.44,87.04,48.27,74.57,74.39,6.93,37.0,62.13,83.85,2022,Europe,50.8465573,4.351697
Los Angeles,United States,142.04,126.12,50.25,61.43,79.19,6.43,61.07,67.59,95.5,2022,North America,34.0536909,-118.242766
Genoa,Italy,141.97,51.57,58.4,71.55,72.79,8.25,35.04,52.63,95.0,2022,Europe,44.40726,8.9338624
Hamilton,Canada,141.68,86.35,45.84,80.64,66.95,8.67,33.03,54.77,61.06,2022,North America,43.2560802,-79.8728583
Gdansk,Poland,141.49,64.36,67.95,50.44,41.32,12.73,29.53,47.92,75.51,2022,Europe,54.36119285,18.62860883362069
Taipei,Taiwan,141.13,59.33,85.68,87.42,65.8,31.6,33.9,50.11,84.38,2022,Asia,25.0375198,121.5636796
Islamabad,Pakistan,140.77,29.52,70.73,63.81,21.5,10.08,35.05,41.71,76.91,2022,Asia,33.6938118,73.0651511
Barcelona,Spain,140.61,70.83,51.9,77.64,61.15,11.44,30.09,66.05,95.73,2022,Europe,41.3828939,2.1774322
Bologna,Italy,139.41,58.89,54.23,79.17,69.79,10.93,32.66,57.1,88.12,2022,Europe,44.4938203,11.3426327
Brasilia,Brazil,139.07,43.54,39.77,51.17,36.84,11.2,29.74,32.89,98.97,2022,Latin America,-10.3333333,-53.2
Poznan,Poland,138.84,58.32,72.51,54.18,40.72,10.66,30.48,57.36,77.41,2022,Europe,52.4006632,16.91973259178088
Thiruvananthapuram,India,138.81,73.73,60.33,60.81,21.75,5.52,42.38,56.82,64.78,2022,Asia,8.5241122,76.9360573
Durban,South Africa,138.54,73.88,19.4,57.71,40.33,3.2,26.11,53.07,95.61,2022,Africa,-29.861825,31.009909
Nizhny Novgorod,Russia,138.09,34.95,68.3,74.27,33.89,13.78,29.25,34.69,45.51,2022,Europe,56.3264816,44.0051395
New York,United States,137.97,100.0,52.93,62.38,100.0,9.94,42.77,58.02,79.66,2022,North America,40.7127281,-74.0060152
Nicosia,Cyprus,137.87,60.28,67.34,50.72,64.53,6.01,25.25,65.67,86.01,2022,Asia,35.1748976,33.3638568
Izmir,Turkey,137.36,35.18,69.96,72.91,28.37,10.36,40.36,59.66,96.88,2022,Asia,38.4224548,27.1310699
Curitiba,Brazil,137.26,32.28,37.71,66.29,31.81,13.97,32.24,31.43,99.6,2022,Latin America,-25.4295963,-49.2712724
Sharjah,United Arab Emirates,136.38,56.71,85.83,61.16,49.03,3.83,54.74,48.04,43.35,2022,Asia,25.3575436,55.3882729
Pretoria,South Africa,136.02,87.26,17.98,66.48,42.76,2.08,45.51,55.94,95.83,2022,Africa,-25.7459277,28.1879101
Warsaw,Poland,135.18,66.04,73.84,59.39,43.94,14.76,35.2,60.04,74.61,2022,Europe,52.2319581,21.0067249
Wroclaw,Poland,134.88,59.89,71.89,56.89,41.12,11.94,33.84,61.4,78.39,2022,Europe,51.1263106,16.97819633051261
Novi Sad,Serbia,134.03,42.73,59.06,50.73,37.44,15.16,16.36,50.71,84.02,2022,Europe,45.2551338,19.8451756
Varna,Bulgaria,133.19,46.29,62.89,61.79,39.14,8.62,30.85,62.82,85.08,2022,Europe,43.2073873,27.9166653
Lodz,Poland,133.11,57.76,57.95,57.45,37.94,10.77,34.86,53.45,77.02,2022,Europe,51.7687323,19.4569911
Detroit,United States,132.98,110.05,25.19,62.39,70.68,1.39,45.09,59.4,66.03,2022,North America,42.3315509,-83.0466403
London,United Kingdom,132.83,88.79,46.75,70.62,85.62,14.5,43.72,58.22,88.25,2022,Europe,51.5073219,-0.1276474
Krakow (Cracow),Poland,132.72,67.1,72.42,59.31,41.3,12.26,30.81,70.32,73.86,2022,Europe,50.047136,19.8896389
Turin,Italy,131.99,67.23,50.13,66.91,65.19,7.29,29.52,70.08,85.66,2022,Europe,45.0677551,7.6824892
Bangalore,India,128.82,102.64,44.82,65.23,28.2,5.7,52.64,83.54,89.39,2022,Asia,12.9767936,77.590082
Iasi,Romania,128.52,44.06,70.51,56.33,37.13,11.57,34.26,58.24,73.04,2022,Europe,47.1615341,27.5836142
Ankara,Turkey,128.17,39.07,60.26,69.1,27.17,11.06,36.44,65.6,91.49,2022,Asia,39.9207886,32.8540482
Lviv,Ukraine,127.46,38.3,60.41,59.6,29.67,11.47,32.94,51.31,69.61,2022,Europe,49.841952,24.0315921
San Juan,Puerto Rico,126.22,66.7,31.16,63.45,70.14,5.54,37.46,50.83,71.25,2022,Latin America,18.465299,-66.116666
Campinas,Brazil,125.34,31.54,33.5,60.98,39.76,11.75,27.96,47.5,98.87,2022,Latin America,-22.90556,-47.06083
Budapest,Hungary,125.15,52.66,64.6,51.18,46.13,14.63,38.97,54.14,78.41,2022,Europe,47.4979937,19.0403594
Sofia,Bulgaria,124.66,55.31,57.48,57.48,42.24,9.02,30.7,68.92,76.01,2022,Europe,42.6978634,23.3221789
Johannesburg,South Africa,124.6,72.15,19.27,60.54,44.87,2.99,40.68,61.14,91.38,2022,Africa,-26.205,28.049722
Paris,France,124.21,80.2,45.04,79.64,84.35,19.15,42.52,64.31,88.39,2022,Europe,48.8588897,2.3200410217200766
Chiang Mai,Thailand,124.13,29.88,76.69,83.81,42.22,16.59,25.75,76.97,75.93,2022,Asia,18.7882778,98.9858802
Coimbatore,India,123.23,40.73,60.04,70.76,23.45,9.25,47.5,63.1,78.1,2022,Asia,11.0018115,76.9628425
Medellin,Colombia,122.94,32.78,48.01,77.05,28.81,13.74,39.18,63.07,99.76,2022,Latin America,6.2443382,-75.573553
Guadalajara,Mexico,122.89,35.99,38.23,79.95,34.05,8.22,40.72,62.34,92.83,2022,Latin America,20.6720375,-103.338396
Astana (Nur-Sultan),Kazakhstan,122.66,41.0,66.81,67.28,30.3,7.94,31.86,51.36,21.26,2022,Asia,51.1282205,71.4306682
Monterrey,Mexico,122.44,42.98,52.56,68.72,38.46,9.17,31.3,69.98,80.37,2022,Latin America,25.6802019,-100.315258
Seoul,South Korea,122.19,74.5,74.23,82.33,78.66,32.32,42.22,58.75,68.39,2022,Asia,37.5666791,126.9782914
Milan,Italy,120.74,53.96,55.44,72.0,74.8,16.38,36.5,66.95,88.12,2022,Europe,45.4641943,9.1896346
Florianopolis,Brazil,120.62,29.31,48.21,58.92,34.39,17.83,46.59,39.82,97.0,2022,Latin America,-27.5973002,-48.5496098
Yerevan,Armenia,120.4,29.73,77.99,56.94,34.01,17.11,31.82,56.98,63.42,2022,Asia,40.1776245,44.5126174
Bucharest,Romania,119.28,53.15,72.06,54.88,40.1,10.14,41.27,75.57,75.61,2022,Europe,44.4361414,26.1027202
Sarajevo,Bosnia And Herzegovina,119.1,43.73,55.51,57.77,38.42,11.74,28.63,68.12,78.18,2022,Europe,43.8519774,18.3866868
Montevideo,Uruguay,118.21,30.79,45.62,68.28,52.0,20.33,37.84,48.68,98.04,2022,Latin America,-34.9058916,-56.1913095
Pune,India,118.18,53.68,58.42,66.24,27.57,12.05,43.47,70.85,74.32,2022,Asia,18.521428,73.8544541
Athens,Greece,117.55,40.03,44.11,56.66,58.97,11.78,38.08,57.29,95.18,2022,Europe,37.9839412,23.7283052
San Jose,Costa Rica,116.6,42.86,44.63,62.49,47.65,9.61,64.02,51.95,99.48,2022,Latin America,9.9325427,-84.0795782
Chisinau,Moldova,116.33,34.38,55.2,49.47,31.82,10.46,27.55,64.55,76.91,2022,Europe,47.0245117,28.8322923
Thessaloniki,Greece,116.14,37.91,46.25,56.21,58.4,11.18,29.19,63.72,88.39,2022,Europe,40.6403167,22.9352716
Hyderabad,India,115.28,51.21,56.04,64.95,26.61,8.71,42.8,76.41,73.54,2022,Asia,17.360589,78.4740613
Tbilisi,Georgia,114.4,29.47,74.93,53.73,30.95,13.63,37.57,73.36,84.2,2022,Asia,41.6934591,44.8014495
Amman,Jordan,113.05,29.51,61.99,65.67,52.18,8.83,42.39,75.68,89.05,2022,Asia,31.9515694,35.9239625
Kiev (Kyiv),Ukraine,112.76,48.16,54.55,57.03,34.11,11.43,42.96,65.38,69.95,2022,Europe,50.4485578,30.52716228586082
Kuwait City,Kuwait,112.25,68.84,69.2,59.62,48.0,15.75,32.11,65.81,20.22,2022,Asia,29.3797091,47.9735629
Ahmedabad,India,111.38,39.11,67.43,66.43,26.01,10.48,38.2,73.19,49.27,2022,Asia,23.0216238,72.5797068
Kuala Lumpur,Malaysia,111.32,64.04,36.15,67.76,39.25,9.12,41.78,66.59,56.55,2022,Asia,3.1516964,101.6942371
Porto Alegre,Brazil,111.06,31.24,26.44,63.3,32.33,16.05,31.98,56.43,98.74,2022,Latin America,-30.0324999,-51.2303767
Rome,Italy,110.32,51.33,46.85,60.46,71.0,17.09,41.36,66.27,93.7,2022,Europe,41.8933203,12.4829321
Quito,Ecuador,109.99,29.69,39.28,68.56,40.48,12.75,42.14,66.1,98.97,2022,Latin America,-0.2201641,-78.5123274
Kharkiv,Ukraine,109.93,33.98,51.46,47.75,30.46,10.54,37.82,56.67,65.35,2022,Europe,49.9923181,36.2310146
Belgrade,Serbia,108.21,36.05,61.91,54.28,40.05,21.36,35.91,65.4,84.14,2022,Europe,44.8178131,20.4568974
Panama City,Panama,108.21,32.31,52.53,59.69,54.54,11.73,34.61,64.47,67.84,2022,Latin America,30.1600827,-85.6545729
Gurgaon,India,107.74,74.9,44.27,65.42,34.1,7.22,37.63,91.57,59.87,2022,Asia,28.42826235,77.00270014657752
Minsk,Belarus,107.65,31.15,40.15,46.52,32.79,18.86,30.22,41.56,64.37,2022,Europe,53.9024716,27.5618225
Odessa (Odesa),Ukraine,107.26,32.72,46.45,50.81,31.94,12.21,36.51,63.07,79.0,2022,Europe,46.48590215,30.68363780440557
Moscow,Russia,105.57,49.56,62.33,64.61,42.2,22.23,51.08,56.82,55.83,2022,Europe,55.7504461,37.6174943
Baku,Azerbaijan,104.86,28.03,69.14,44.57,31.6,16.83,37.63,75.61,91.4,2022,Asia,40.3754434,49.8326748
Istanbul,Turkey,104.78,28.73,52.46,69.18,31.14,16.26,52.27,69.17,93.02,2022,Asia,41.0091982,28.9662187
Belo Horizonte,Brazil,104.45,20.99,36.23,63.61,32.5,20.78,43.23,52.05,98.5,2022,Latin America,-19.9227318,-43.9450948
Saint Petersburg,Russia,103.4,40.77,60.88,59.41,37.81,17.95,48.35,62.15,60.64,2022,Europe,59.938732,30.316229
Skopje,North Macedonia,103.27,37.02,52.92,55.58,34.9,12.93,28.11,82.77,76.3,2022,Europe,41.9960924,21.4316495
Shenzhen,China,103.2,68.96,66.97,59.57,51.08,44.03,36.45,62.39,81.8,2022,Asia,22.5445741,114.0545429
Chennai,India,102.91,46.31,59.43,70.26,26.08,14.72,47.53,75.12,53.22,2022,Asia,13.0836939,80.270186
Lahore,Pakistan,102.53,24.42,61.26,63.0,21.53,14.13,33.78,78.62,67.56,2022,Asia,31.5656822,74.3141829
Santiago,Chile,102.07,32.08,42.36,65.99,45.64,18.59,36.99,70.14,90.21,2022,Latin America,-33.4377756,-70.6504502
Noida,India,98.97,62.57,42.03,66.78,29.21,6.4,44.96,92.43,58.9,2022,Asia,28.5707841,77.3271074
Hong Kong,Hong Kong,98.42,65.74,78.08,66.34,80.71,46.93,42.56,67.57,83.64,2022,Asia,22.2793278,114.1628131
Hanoi,Vietnam,97.48,30.67,61.86,57.1,36.85,17.27,28.68,89.42,79.04,2022,Asia,21.0294498,105.8544441
Dnipro,Ukraine,97.47,32.74,48.56,52.26,29.26,10.81,32.83,80.75,69.52,2022,Europe,48.4680221,35.0417711
Guatemala City,Guatemala,94.93,24.37,37.54,61.9,44.59,14.84,48.19,72.38,99.89,2022,Latin America,14.6222328,-90.5185188
Yekaterinburg,Russia,93.72,57.77,52.75,50.27,33.23,9.51,38.37,76.44,21.33,2022,Europe,56.839104,60.60825
Buenos Aires,Argentina,93.66,26.89,36.93,69.39,35.25,33.52,48.15,52.43,98.28,2022,Latin America,-34.6075682,-58.4370894
Kolkata,India,93.0,44.66,53.45,57.74,25.99,9.98,60.36,78.33,60.9,2022,Asia,22.5414185,88.35769124388872
Tirana,Albania,90.49,31.15,56.1,48.69,38.68,15.72,39.93,88.11,86.43,2022,Europe,41.3281482,19.8184435
Casablanca,Morocco,89.3,34.07,44.41,45.17,36.59,14.76,48.09,82.25,98.08,2022,Africa,33.5675527,-7.618756606822727
Mexico City,Mexico,88.08,36.74,30.93,65.29,37.41,14.17,52.45,82.27,92.37,2022,Latin America,19.4326296,-99.1331785
Bogota,Colombia,87.04,26.1,35.1,64.73,27.94,23.49,51.96,70.42,97.12,2022,Latin America,4.6533326,-74.083652
Kathmandu,Nepal,86.31,23.16,63.08,56.76,29.87,23.07,36.87,95.37,92.64,2022,Asia,27.708317,85.3205817
Novosibirsk,Russia,85.74,38.35,52.7,55.81,32.26,12.34,40.58,71.7,16.14,2022,Europe,55.0282171,82.9234509
Bangkok,Thailand,85.01,29.77,58.5,77.08,50.36,26.79,46.18,77.28,58.39,2022,Asia,13.7525438,100.4934734
Sao Paulo,Brazil,83.92,29.23,29.8,58.5,37.51,17.0,50.49,79.64,99.04,2022,Latin America,-23.5506507,-46.6333824
Karachi,Pakistan,83.56,29.16,46.59,56.9,20.75,15.14,41.48,89.97,71.32,2022,Asia,24.8546842,67.0207055
Nairobi,Kenya,83.27,29.23,41.06,62.15,35.88,22.13,56.62,79.57,99.79,2022,Africa,-1.2832533,36.8172449
Delhi,India,83.1,60.44,40.69,66.86,28.23,15.94,57.37,90.52,58.9,2022,Asia,28.6517178,77.2219388
Shanghai,China,82.66,53.0,65.68,61.64,53.9,43.81,47.42,76.5,83.64,2022,Asia,31.2322758,121.4692071
Almaty,Kazakhstan,82.35,33.55,34.76,47.59,30.22,12.11,38.98,78.45,58.3,2022,Asia,43.2363924,76.9457275
Cairo,Egypt,82.01,24.38,50.22,45.09,32.39,11.0,50.21,91.54,88.45,2022,Africa,30.0443879,31.2357257
Lima,Peru,78.81,28.89,29.83,58.4,34.6,18.37,50.04,85.11,97.69,2022,Latin America,-12.0621065,-77.0365256
Beirut,Lebanon,76.43,15.4,53.13,64.94,120.47,19.48,39.82,93.63,94.74,2022,Asia,33.88922645,35.50255852895232
Caracas,Venezuela,75.68,15.87,15.73,38.38,45.31,15.91,34.85,73.99,99.93,2022,Latin America,10.506098,-66.9146017
Mumbai,India,75.62,48.03,54.82,64.81,29.33,34.64,54.65,83.79,71.48,2022,Asia,19.0759899,72.8773928
Ho Chi Minh City,Vietnam,68.56,30.87,46.16,59.84,39.01,30.58,31.81,92.35,63.44,2022,Asia,10.7715512,106.6983801
Jakarta,Indonesia,67.49,25.32,46.5,56.76,40.86,23.04,52.88,84.42,63.76,2022,Asia,-6.1753942,106.827183
Beijing,China,65.18,53.08,66.64,64.86,49.53,52.21,44.61,82.59,57.64,2022,Asia,39.906217,116.3912757
Rio de Janeiro,Brazil,64.06,18.93,22.43,44.83,36.67,27.61,51.09,67.86,88.22,2022,Latin America,-22.9110137,-43.2093727
Colombo,Sri Lanka,62.58,18.58,59.59,72.05,33.62,48.45,62.17,60.41,59.11,2022,Asia,6.9387469,79.8541134
Dhaka,Bangladesh,55.07,23.81,35.93,40.16,35.12,17.48,57.85,93.5,71.29,2022,Asia,23.7861979,90.4026151
Lagos,Nigeria,49.38,8.3,34.06,46.27,37.33,12.71,66.78,89.85,60.75,2022,Africa,6.4550575,3.3941795
Tehran,Iran,46.26,14.55,45.14,52.69,31.47,42.99,53.06,81.29,70.99,2022,Asia,35.6892523,51.3896004
Manila,Philippines,43.13,22.24,35.61,63.26,40.77,38.3,54.02,89.86,61.23,2022,Asia,14.5948914,120.9782618
Adelaide,Australia,203.19,100.23,71.37,80.99,80.4,4.51,24.02,18.11,94.96,2021,Oceania,-34.9281805,138.5999312
Canberra,Australia,201.85,94.9,78.17,81.44,84.6,5.59,24.05,13.89,82.72,2021,Oceania,-35.2975906,149.1012676
Wellington,New Zealand,200.01,96.54,71.54,74.9,78.47,6.07,27.74,13.66,97.68,2021,Oceania,-41.2887953,174.7772114
Raleigh,United States,199.23,124.39,65.55,75.62,71.18,3.18,32.27,22.61,83.88,2021,North America,35.7803977,-78.6390989
Zurich,Switzerland,196.51,117.91,83.6,75.94,135.49,8.01,33.78,17.31,81.48,2021,Europe,47.3744489,8.5410422
The Hague (Den Haag),Netherlands,194.63,92.65,74.84,78.02,72.55,5.97,29.32,20.07,90.61,2021,Europe,52.0799838,4.3113461
Madison,United States,192.32,113.23,67.15,78.89,68.69,3.59,23.59,19.59,51.64,2021,North America,43.074761,-89.3837613
Columbus,United States,191.12,122.05,56.57,74.19,73.13,2.45,25.56,25.32,71.29,2021,North America,39.9622601,-83.0007065
Austin,United States,188.46,129.63,64.2,70.69,63.04,3.59,34.12,36.27,82.08,2021,North America,30.2711286,-97.7436995
Brisbane,Australia,187.71,96.93,64.76,82.23,84.71,5.95,40.03,21.88,98.07,2021,Oceania,-27.4689682,153.0234991
Eindhoven,Netherlands,187.38,85.29,75.95,73.04,82.62,6.42,25.35,22.55,85.38,2021,Europe,51.4392648,5.478633
Victoria,Canada,187.37,87.61,64.68,69.89,72.64,7.27,28.47,15.05,92.52,2021,North America,48.4283182,-123.3649533
Charlotte,United States,186.65,120.0,55.81,73.88,72.66,3.01,35.19,28.44,84.05,2021,North America,35.2272086,-80.8430827
Vienna,Austria,185.8,87.36,74.74,78.94,71.31,13.12,26.51,17.76,81.77,2021,Europe,48.2083537,16.3725042
Geneva,Switzerland,184.04,109.73,72.74,73.08,131.75,9.45,25.49,26.44,82.61,2021,Europe,46.2017559,6.1466014
Richmond,United States,183.89,106.27,54.98,73.86,68.31,3.84,21.96,31.63,81.27,2021,North America,37.5385087,-77.43428
San Diego,United States,183.74,112.72,63.49,70.15,80.22,5.24,33.8,35.04,97.08,2021,North America,32.7174202,-117.1627728
Perth,Australia,183.4,99.43,57.79,77.6,84.64,6.33,35.83,23.25,95.71,2021,Oceania,-31.9558964,115.8605801
Bergen,Norway,183.31,86.5,71.91,75.77,104.07,7.55,23.77,20.97,78.83,2021,Europe,60.3943055,5.3259192
Copenhagen,Denmark,182.71,84.96,72.46,77.68,97.49,8.39,28.61,21.06,83.74,2021,Europe,55.6867243,12.5700724
Luxembourg,Luxembourg,182.68,100.48,72.45,74.51,89.65,11.66,33.24,20.75,82.62,2021,Europe,49.6112768,6.129799
Buffalo,United States,181.27,94.89,55.01,76.84,72.95,2.01,22.17,25.02,66.43,2021,North America,42.8867166,-78.8783922
Dallas,United States,180.73,141.09,50.29,65.61,64.8,2.35,35.22,41.92,81.85,2021,North America,32.7762719,-96.7968559
Seattle,United States,179.84,121.2,50.89,73.49,89.48,5.23,41.57,28.63,91.73,2021,North America,47.6038321,-122.3300624
Reykjavik,Iceland,179.71,69.81,77.94,66.68,98.75,6.57,20.04,15.49,68.81,2021,Europe,64.145981,-21.9422367
Quebec City,Canada,179.25,92.31,85.24,71.23,67.37,4.56,27.91,29.29,47.98,2021,North America,46.8183175,-71.2143518
Kansas City,United States,178.85,113.55,40.59,79.4,68.86,2.28,26.29,32.03,75.08,2021,North America,39.100105,-94.5781416
Calgary,Canada,177.49,113.16,65.51,76.43,73.65,3.71,30.1,24.0,33.09,2021,North America,51.0460954,-114.065465
Sydney,Australia,177.34,96.3,66.33,77.92,89.11,9.41,43.29,26.86,97.07,2021,Oceania,-33.8698439,151.2082848
Helsinki,Finland,177.14,82.88,74.73,77.49,81.43,12.78,30.97,13.34,62.79,2021,Europe,60.1674881,24.9427473
Edinburgh,United Kingdom,177.09,78.27,69.43,80.69,75.96,8.76,28.85,27.65,84.01,2021,Europe,55.9533456,-3.1883749
Muscat,Oman,176.55,90.26,78.93,59.68,52.31,5.01,21.06,36.8,67.22,2021,Asia,23.61515,58.5912467
Munich,Germany,176.45,90.73,82.35,78.15,82.01,16.27,33.04,24.93,75.98,2021,Europe,48.1371079,11.5753822
Portland,United States,175.74,100.7,51.24,73.84,78.68,4.34,33.08,31.2,89.56,2021,North America,45.5202471,-122.6741949
San Jose,United States,175.7,131.28,53.47,73.23,78.55,6.75,38.11,46.54,95.53,2021,North America,37.3361905,-121.890583
Vancouver,Canada,175.57,92.47,63.55,75.46,76.22,11.41,37.23,24.17,91.15,2021,North America,49.2608724,-123.113952
Melbourne,Australia,175.15,101.47,55.51,75.09,82.43,8.81,40.58,25.99,94.3,2021,Oceania,-37.8142176,144.9631608
Reno,United States,174.86,116.18,54.4,62.24,67.38,3.61,25.1,32.36,62.28,2021,North America,39.5261206,-119.8126581
Belfast,United Kingdom,174.34,84.2,60.06,71.74,65.82,4.25,37.88,27.86,90.84,2021,Europe,54.596391,-5.9301829
Ottawa,Canada,174.23,87.41,74.15,74.97,72.15,5.67,31.19,21.21,44.46,2021,North America,45.4211435,-75.6900574
Dusseldorf,Germany,174.03,89.78,68.98,72.33,72.35,9.79,30.31,32.88,86.37,2021,Europe,51.2254018,6.7763137
Liverpool,United Kingdom,173.76,82.19,55.65,85.71,69.83,8.02,32.76,30.2,90.87,2021,Europe,53.4071991,-2.99168
Tampa,United States,173.52,104.1,50.77,68.64,79.53,3.35,35.84,29.94,84.67,2021,North America,27.9477595,-82.458444
Frankfurt,Germany,173.19,103.25,58.12,74.37,75.63,9.86,25.1,37.78,84.72,2021,Europe,50.1106444,8.6820917
Saint Louis,United States,172.79,120.26,29.66,81.38,68.23,1.89,27.16,38.0,74.75,2021,North America,38.6264256,-90.1995853
Glasgow,United Kingdom,171.81,92.38,56.14,80.6,69.15,6.58,33.79,34.98,84.78,2021,Europe,55.8609825,-4.2488787
Cincinnati,United States,171.67,111.12,51.63,68.77,63.64,2.49,24.89,43.82,73.24,2021,North America,39.1014537,-84.5124602
Nashville,United States,170.85,112.53,52.22,63.95,72.15,3.06,38.88,35.71,83.02,2021,North America,36.1622767,-86.7742984
Utrecht,Netherlands,170.82,74.55,72.24,74.0,84.26,8.99,31.82,30.67,87.16,2021,Europe,52.080985600000005,5.12768396945229
Indianapolis,United States,170.68,120.19,42.44,73.01,65.62,2.18,29.07,41.78,69.92,2021,North America,39.7683331,-86.1583502
Valencia,Spain,170.08,69.24,74.34,81.15,55.41,7.6,29.6,45.88,93.84,2021,Europe,39.4697065,-0.3763353
Abu Dhabi,United Arab Emirates,169.28,91.13,88.46,71.31,59.76,5.07,26.33,45.52,43.89,2021,Asia,24.4538352,54.3774014
Jacksonville,United States,169.14,110.9,41.96,69.48,69.47,2.98,35.23,38.58,87.81,2021,North America,30.3321838,-81.655651
Gothenburg,Sweden,169.07,84.65,53.57,68.57,81.02,9.84,26.02,20.82,77.49,2021,Europe,57.7072326,11.9670171
Cambridge,United Kingdom,168.9,73.91,72.2,73.79,75.48,10.95,33.56,32.18,91.37,2021,Europe,52.2055314,0.1186637
San Antonio,United States,168.84,104.38,51.32,72.06,64.61,2.57,30.5,44.96,80.58,2021,North America,29.4246002,-98.4951405
Tallinn,Estonia,168.65,60.15,77.5,71.28,59.2,9.74,26.77,22.58,64.28,2021,Europe,59.4372155,24.7453688
Tucson,United States,168.62,94.9,49.48,59.05,67.18,3.15,29.24,26.15,72.66,2021,North America,32.2228765,-110.9748477
Minneapolis,United States,168.6,111.91,47.75,78.45,82.47,3.7,36.56,26.52,49.46,2021,North America,44.9772995,-93.2654692
Kelowna,Canada,168.53,86.36,49.69,75.26,66.83,5.35,28.9,21.55,59.65,2021,North America,49.8879177,-119.4959025
Spokane,United States,168.34,88.99,45.53,63.66,73.5,5.48,23.73,19.75,67.12,2021,North America,47.6571934,-117.4235106
Boston,United States,168.02,99.43,64.48,75.12,89.29,8.3,45.42,27.03,71.73,2021,North America,42.3602534,-71.0582912
Graz,Austria,167.57,74.18,74.44,78.08,79.47,8.9,27.17,37.15,73.93,2021,Europe,47.0708678,15.4382786
Sacramento,United States,167.05,101.99,50.94,69.5,76.73,5.8,26.99,45.4,90.64,2021,North America,38.5810606,-121.493895
Rotterdam,Netherlands,166.76,82.17,64.13,76.88,78.24,7.05,30.03,42.5,87.89,2021,Europe,51.9244424,4.47775
Amsterdam,Netherlands,166.66,79.07,66.32,69.6,86.8,11.03,29.62,30.9,87.45,2021,Europe,52.3727598,4.8936041
Albuquerque,United States,166.6,104.06,29.99,66.56,65.48,3.14,25.12,25.13,67.06,2021,North America,35.0841034,-106.650985
Cork,Ireland,166.53,72.36,65.77,57.77,85.85,6.35,34.2,24.44,89.78,2021,Europe,51.897077,-8.4654674
Halifax,Canada,166.47,80.54,59.64,70.03,76.15,5.85,29.45,22.57,58.99,2021,North America,44.648618,-63.5859487
Leeds,United Kingdom,166.19,89.29,57.8,82.58,65.79,6.4,31.45,46.44,84.59,2021,Europe,53.7974185,-1.5437941
Edmonton,Canada,166.02,101.79,57.39,78.49,72.74,3.65,29.73,29.54,32.11,2021,North America,53.535411,-113.507996
Pittsburgh,United States,165.33,100.3,62.23,74.84,79.69,2.69,38.06,45.3,72.13,2021,North America,40.4416941,-79.9900861
Vilnius,Lithuania,165.21,58.9,72.41,71.51,48.79,11.05,27.52,23.5,66.59,2021,Europe,54.6870458,25.2829111
Stuttgart,Germany,165.06,94.82,71.24,72.01,72.49,9.73,34.95,44.79,81.07,2021,Europe,48.7784485,9.1800132
Ljubljana,Slovenia,164.61,55.3,78.51,66.3,62.56,13.35,27.72,22.77,76.11,2021,Europe,46.0500268,14.5069289
Orlando,United States,164.45,96.75,48.07,62.5,69.38,3.27,36.88,35.58,87.23,2021,North America,28.5421109,-81.3790304
Auckland,New Zealand,164.21,81.69,53.97,73.04,84.82,11.18,37.26,29.52,99.89,2021,Oceania,-36.852095,174.7631803
Denver,United States,163.12,117.39,56.85,68.92,73.96,4.38,36.56,42.8,56.28,2021,North America,39.7392364,-104.9848623
Anchorage,United States,162.96,107.68,36.75,61.17,92.21,2.99,27.15,16.56,41.61,2021,North America,61.2163129,-149.894852
Oslo,Norway,162.86,82.7,64.99,75.97,106.12,10.61,31.81,23.96,59.99,2021,Europe,59.9133301,10.7389701
Houston,United States,162.52,135.77,36.11,71.67,66.11,2.21,41.63,56.08,85.53,2021,North America,29.7589382,-95.3676974
Salt Lake City,United States,161.79,126.02,67.64,71.38,63.89,7.04,35.41,63.04,66.52,2021,North America,40.7596198,-111.8867975
Hamburg,Germany,161.67,81.95,56.74,74.68,74.46,11.95,34.39,30.51,82.75,2021,Europe,53.550341,10.000654
Atlanta,United States,161.61,120.43,38.0,67.34,76.22,3.79,42.18,44.85,89.73,2021,North America,33.7489924,-84.3902644
Washington,United States,161.6,112.51,42.17,70.63,84.39,5.0,40.77,39.18,81.62,2021,North America,38.8950368,-77.0365427
Mangalore,India,161.39,54.74,74.67,77.46,23.63,6.63,32.14,38.98,66.65,2021,Asia,12.8698101,74.8430082
Kaunas,Lithuania,161.17,55.71,61.54,73.71,47.22,10.25,24.04,26.03,68.94,2021,Europe,54.8982139,23.9044817
Mississauga,Canada,160.45,85.26,57.98,70.65,72.16,7.7,38.79,24.25,58.72,2021,North America,43.5896231,-79.6443879
Berlin,Germany,160.11,88.21,58.86,69.85,72.52,9.97,33.66,39.41,83.35,2021,Europe,52.5170365,13.3888599
Oakland,United States,159.34,92.3,36.18,78.9,89.59,7.97,37.69,35.39,96.4,2021,North America,37.8044557,-122.2713563
Cologne,Germany,158.51,88.35,56.87,74.83,72.68,10.36,36.39,41.47,84.85,2021,Europe,50.938361,6.959974
Timisoara,Romania,157.45,62.72,75.89,72.81,38.27,7.94,23.7,57.67,82.05,2021,Europe,45.7538355,21.2257474
Montreal,Canada,156.81,85.11,70.85,64.78,68.65,7.26,39.53,33.21,52.37,2021,North America,45.5031824,-73.5698065
San Francisco,United States,156.65,126.95,43.88,65.17,93.35,7.99,51.3,47.36,97.26,2021,North America,37.7790262,-122.419906
Brno,Czech Republic,156.54,60.05,73.47,74.04,49.71,12.79,26.36,43.42,78.17,2021,Europe,49.1922443,16.6113382
Zagreb,Croatia,156.53,49.57,77.72,65.65,54.06,13.47,31.68,31.65,82.19,2021,Europe,45.8131847,15.9771774
Bursa,Turkey,156.15,33.52,72.0,78.66,31.43,7.01,32.73,44.0,93.39,2021,Asia,40.1827657,29.0677305
Cleveland,United States,156.09,79.05,35.33,82.94,75.64,1.88,33.74,36.64,73.11,2021,North America,41.4996562,-81.6936813
Prague,Czech Republic,155.92,59.96,75.84,74.61,52.43,17.97,32.35,34.98,80.67,2021,Europe,50.0596288,14.446459273258007
Honolulu,United States,155.87,76.42,56.08,72.42,95.92,8.75,41.19,36.82,95.33,2021,North America,21.2890997,-157.717299
Tokyo,Japan,155.77,76.36,76.71,80.72,91.34,15.4,40.93,43.27,85.26,2021,Asia,35.6828387,139.7594549
Stockholm,Sweden,155.5,80.77,54.9,66.83,87.49,14.22,36.09,19.81,69.67,2021,Europe,59.3251172,18.0710935
Bristol,United Kingdom,155.04,72.89,58.75,73.54,75.28,10.35,28.97,45.07,88.51,2021,Europe,51.47091115,-2.579033402570841
Dubai,United Arab Emirates,154.32,84.02,83.44,67.47,66.95,5.19,38.26,50.61,50.27,2021,Asia,25.2653471,55.2924914
Porto,Portugal,153.43,39.79,63.58,74.85,54.26,13.73,28.3,34.67,96.61,2021,Europe,41.1494512,-8.6107884
Doha,Qatar,152.66,89.04,87.96,72.94,64.14,6.13,30.62,60.41,36.03,2021,Asia,25.2856329,51.5264162
Baltimore,United States,152.45,102.72,25.39,76.57,73.33,2.56,31.14,50.38,81.24,2021,North America,39.2908816,-76.610759
Lisbon,Portugal,152.39,46.93,71.76,71.56,54.96,16.67,35.79,35.54,98.59,2021,Europe,38.7077507,-9.1365919
Phoenix,United States,150.8,115.89,47.9,66.58,66.73,3.43,31.87,57.03,53.76,2021,North America,33.4484367,-112.074141
Cluj-Napoca,Romania,150.6,50.37,79.0,64.56,41.24,12.54,28.8,42.88,74.35,2021,Europe,46.769379,23.5899542
Antwerp,Belgium,150.13,78.49,62.6,80.53,79.41,5.98,37.15,61.14,85.42,2021,Europe,51.2211097,4.3997081
Miami,United States,149.63,84.06,46.85,62.94,78.14,5.37,43.4,39.41,85.69,2021,North America,25.7741728,-80.19362
Regina,Canada,148.98,95.96,47.41,67.79,71.8,4.52,17.2,37.03,14.28,2021,North America,50.44876,-104.61731
Toronto,Canada,148.69,85.21,60.16,75.87,75.69,12.37,44.98,37.77,65.35,2021,North America,43.6534817,-79.3839347
Lyon,France,148.43,73.03,54.86,77.39,82.31,9.49,33.78,51.09,88.51,2021,Europe,45.7578137,4.8320114
Las Vegas,United States,148.18,109.9,43.81,55.81,68.92,3.17,27.36,53.11,57.4,2021,North America,36.1672559,-115.148516
Milwaukee,United States,147.94,77.38,31.45,65.73,80.96,3.29,28.54,29.54,60.96,2021,North America,43.0349931,-87.922497
Madrid,Spain,147.06,61.15,70.58,79.11,65.71,13.37,35.21,52.92,85.47,2021,Europe,40.4167047,-3.7035825
Manchester,United Kingdom,146.8,87.46,43.85,78.42,72.5,7.55,40.7,52.96,86.95,2021,Europe,53.4794892,-2.2451148
Chicago,United States,146.58,106.32,35.19,66.41,80.38,4.05,42.07,43.52,66.11,2021,North America,41.8755616,-87.6244212
Bratislava,Slovakia,146.46,59.05,68.99,57.6,52.69,13.77,30.59,40.9,80.72,2021,Europe,48.1516988,17.1093063
Haifa,Israel,145.67,76.74,72.61,73.73,84.84,8.82,29.7,74.79,93.57,2021,Asia,32.8191218,34.9983856
Birmingham,United Kingdom,145.45,74.7,40.44,74.16,70.79,7.14,32.55,49.55,87.66,2021,Europe,52.4796992,-1.9026911
Riyadh,Saudi Arabia,145.41,86.23,72.89,64.8,52.72,2.8,30.16,64.67,44.45,2021,Asia,24.638916,46.7160104
Singapore,Singapore,143.82,83.62,67.02,70.88,85.59,19.38,41.19,33.16,57.45,2021,Asia,1.2899175,103.8519072
Brussels,Belgium,143.24,86.65,49.2,74.97,79.05,6.08,37.11,62.13,83.85,2021,Europe,50.8465573,4.351697
Tel Aviv-Yafo,Israel,143.03,63.85,74.4,74.55,93.64,21.65,36.99,46.98,93.88,2021,Asia,32.0852997,34.7818064
Winnipeg,Canada,142.6,92.69,43.06,68.82,71.45,3.91,31.47,37.46,24.67,2021,North America,49.8955367,-97.1384584
Riga,Latvia,142.27,46.71,62.07,60.73,55.43,9.59,31.88,38.34,74.7,2021,Europe,56.9493977,24.1051846
Cape Town,South Africa,142.27,66.96,26.22,70.62,42.24,6.91,43.2,38.8,98.19,2021,Africa,-33.928992,18.417396
Hamilton,Canada,142.13,79.72,47.71,81.24,68.41,7.25,33.56,53.38,61.06,2021,North America,43.2560802,-79.8728583
Sharjah,United Arab Emirates,142.09,79.88,83.59,59.63,52.63,4.3,55.03,49.32,43.35,2021,Asia,25.3575436,55.3882729
Taipei,Taiwan,141.71,57.79,86.55,87.33,67.2,31.45,33.38,49.32,84.38,2021,Asia,25.0375198,121.5636796
Limassol,Cyprus,141.65,48.94,66.66,48.74,70.0,9.55,19.28,54.72,95.74,2021,Asia,34.6852901,33.0332657
Jeddah (Jiddah),Saudi Arabia,140.93,72.68,69.97,58.35,51.65,2.91,28.88,69.01,66.17,2021,Asia,21.48371595,39.17290852271105
Nizhny Novgorod,Russia,140.59,32.46,68.3,75.68,33.84,11.51,28.96,33.92,45.51,2021,Europe,56.3264816,44.0051395
Izmir,Turkey,140.45,35.47,71.74,72.93,31.22,8.45,39.51,59.64,96.88,2021,Asia,38.4224548,27.1310699
Philadelphia,United States,140.25,85.04,38.49,69.38,79.12,4.48,39.2,52.15,77.98,2021,North America,39.9527237,-75.1635262
Genoa,Italy,139.57,52.46,56.84,70.6,79.71,8.35,35.04,53.85,95.0,2021,Europe,44.40726,8.9338624
Bologna,Italy,139.03,54.46,55.29,78.52,77.02,10.86,32.66,54.44,88.12,2021,Europe,44.4938203,11.3426327
Brasilia,Brazil,138.92,48.94,38.12,49.15,33.93,11.3,30.21,33.85,98.97,2021,Latin America,-10.3333333,-53.2
Islamabad,Pakistan,138.33,28.38,71.08,64.35,23.6,11.57,35.0,42.76,76.91,2021,Asia,33.6938118,73.0651511
Nicosia,Cyprus,137.88,57.01,67.49,52.37,68.78,5.24,26.15,64.62,86.01,2021,Asia,35.1748976,33.3638568
New York,United States,137.67,100.0,53.04,61.64,100.0,10.11,43.13,57.58,79.66,2021,North America,40.7127281,-74.0060152
Dublin,Ireland,137.25,67.67,50.46,52.06,86.01,9.25,40.12,39.88,85.89,2021,Europe,53.3497645,-6.2602732
Manama,Bahrain,136.53,49.13,77.58,67.06,58.2,8.79,29.68,61.08,64.31,2021,Asia,26.2235041,50.5822436
Novi Sad,Serbia,135.89,38.92,59.71,49.66,39.79,14.67,16.61,45.67,84.02,2021,Europe,45.2551338,19.8451756
Durban,South Africa,134.92,64.51,19.16,58.39,39.86,3.66,26.59,52.12,95.61,2021,Africa,-29.861825,31.009909
Barcelona,Spain,134.28,56.46,54.49,77.68,66.18,13.74,29.94,64.8,95.73,2021,Europe,41.3828939,2.1774322
Curitiba,Brazil,133.92,27.4,36.9,66.26,30.73,14.96,31.8,31.88,99.6,2021,Latin America,-25.4295963,-49.2712724
Varna,Bulgaria,132.88,41.42,68.38,62.01,41.33,9.25,30.85,63.35,85.08,2021,Europe,43.2073873,27.9166653
Thiruvananthapuram,India,132.26,65.13,60.09,55.9,20.88,7.27,42.5,55.78,64.78,2021,Asia,8.5241122,76.9360573
Ankara,Turkey,131.75,39.72,60.31,69.26,31.73,6.78,36.9,66.15,91.49,2021,Asia,39.9207886,32.8540482
Los Angeles,United States,131.42,98.51,51.59,61.33,81.92,7.42,60.63,66.32,95.5,2021,North America,34.0536909,-118.242766
Pretoria,South Africa,131.06,75.29,18.06,67.1,44.7,2.55,45.13,55.93,95.83,2021,Africa,-25.7459277,28.1879101
Campinas,Brazil,130.45,35.97,33.67,61.41,34.83,10.45,28.52,45.14,98.87,2021,Latin America,-22.90556,-47.06083
Iasi,Romania,129.83,43.09,70.88,57.64,39.02,10.84,33.09,58.44,73.04,2021,Europe,47.1615341,27.5836142
Warsaw,Poland,129.74,52.04,73.56,60.65,46.7,15.1,35.08,59.52,74.61,2021,Europe,52.2319581,21.0067249
Gdansk,Poland,129.1,42.4,68.5,49.93,44.78,18.31,29.24,44.76,75.51,2021,Europe,54.36119285,18.62860883362069
San Juan,Puerto Rico,128.34,72.94,31.0,60.22,71.74,4.47,37.46,50.7,71.25,2021,Latin America,18.465299,-66.116666
London,United Kingdom,128.09,80.12,47.19,71.26,86.75,15.65,43.81,58.86,88.25,2021,Europe,51.5073219,-0.1276474
Chiang Mai,Thailand,126.6,33.69,76.02,84.84,47.24,15.15,25.75,77.07,75.93,2021,Asia,18.7882778,98.9858802
Wroclaw,Poland,126.13,45.25,72.68,57.53,43.55,16.16,32.96,60.69,78.39,2021,Europe,51.1263106,16.97819633051261
Poznan,Poland,126.07,41.61,72.07,55.08,43.42,16.0,30.97,57.93,77.41,2021,Europe,52.4006632,16.91973259178088
Turin,Italy,125.8,58.53,49.72,67.22,73.37,8.33,29.44,71.28,85.66,2021,Europe,45.0677551,7.6824892
Astana (Nur-Sultan),Kazakhstan,125.1,40.87,66.19,66.82,32.3,7.64,31.95,46.97,21.26,2021,Asia,51.1282205,71.4306682
Johannesburg,South Africa,123.44,71.19,19.35,60.26,46.0,3.2,40.8,61.62,91.38,2021,Africa,-26.205,28.049722
Lodz,Poland,123.32,45.18,57.76,53.8,41.31,11.59,30.42,59.84,77.02,2021,Europe,51.7687323,19.4569911
Budapest,Hungary,123.21,50.79,63.95,49.1,45.39,14.69,39.1,54.12,78.41,2021,Europe,47.4979937,19.0403594
Seoul,South Korea,123.17,69.85,73.68,82.13,88.37,28.86,42.05,57.82,68.39,2021,Asia,37.5666791,126.9782914
Sarajevo,Bosnia And Herzegovina,123.12,52.98,52.94,56.51,40.34,9.63,28.65,67.82,78.18,2021,Europe,43.8519774,18.3866868
Monterrey,Mexico,123.0,46.63,50.21,66.61,39.97,6.42,31.46,72.07,80.37,2021,Latin America,25.6802019,-100.315258
Montevideo,Uruguay,121.76,31.99,45.97,67.51,50.63,16.75,37.84,49.45,98.04,2021,Latin America,-34.9058916,-56.1913095
Lviv,Ukraine,121.29,29.25,58.57,59.08,29.11,11.72,33.26,52.89,69.61,2021,Europe,49.841952,24.0315921
Sofia,Bulgaria,120.75,47.09,58.24,57.18,43.94,9.82,30.72,68.76,76.01,2021,Europe,42.6978634,23.3221789
Krakow (Cracow),Poland,120.55,46.94,73.82,58.83,43.04,16.46,30.71,70.75,73.86,2021,Europe,50.047136,19.8896389
Coimbatore,India,120.42,36.41,61.25,72.42,24.43,12.06,47.5,62.29,78.1,2021,Asia,11.0018115,76.9628425
Athens,Greece,120.14,41.36,47.7,56.41,60.99,11.15,38.21,57.28,95.18,2021,Europe,37.9839412,23.7283052
Guadalajara,Mexico,119.49,36.89,37.81,78.93,35.0,9.13,40.54,65.68,92.83,2021,Latin America,20.6720375,-103.338396
Detroit,United States,118.87,72.63,26.53,62.88,69.73,1.55,46.21,58.48,66.03,2021,North America,42.3315509,-83.0466403
Paris,France,118.6,69.34,46.81,79.49,94.23,20.97,40.76,64.54,88.39,2021,Europe,48.8588897,2.3200410217200766
Thessaloniki,Greece,117.83,34.59,52.42,55.86,62.86,11.22,28.0,63.77,88.39,2021,Europe,40.6403167,22.9352716
San Jose,Costa Rica,117.71,44.07,44.65,63.19,52.08,8.83,64.02,51.95,99.48,2021,Latin America,9.9325427,-84.0795782
Medellin,Colombia,117.29,27.59,48.63,76.14,31.83,17.11,39.11,62.88,99.76,2021,Latin America,6.2443382,-75.573553
Milan,Italy,117.17,50.71,56.44,71.89,83.65,17.85,36.62,67.4,88.12,2021,Europe,45.4641943,9.1896346
Bucharest,Romania,116.09,48.35,72.02,54.47,42.84,10.6,42.05,75.51,75.61,2021,Europe,44.4361414,26.1027202
Yerevan,Armenia,115.72,27.12,76.18,53.41,31.97,17.79,33.45,57.02,63.42,2021,Asia,40.1776245,44.5126174
Pune,India,115.05,48.37,58.68,66.29,26.65,12.77,44.13,71.14,74.32,2021,Asia,18.521428,73.8544541
Hyderabad,India,114.77,48.01,56.04,65.9,26.97,8.63,42.7,75.98,73.54,2021,Asia,17.360589,78.4740613
Ahmedabad,India,113.95,36.01,69.55,69.87,26.74,10.22,37.65,71.83,49.27,2021,Asia,23.0216238,72.5797068
Bangalore,India,113.51,68.18,45.89,66.17,28.17,8.2,52.94,83.23,89.39,2021,Asia,12.9767936,77.590082
Amman,Jordan,112.71,31.36,61.28,65.47,54.81,9.08,42.64,75.69,89.05,2021,Asia,31.9515694,35.9239625
Tbilisi,Georgia,112.06,27.19,76.59,53.16,28.75,15.08,37.57,74.55,84.2,2021,Asia,41.6934591,44.8014495
Istanbul,Turkey,110.74,33.47,52.5,69.17,34.63,11.35,52.92,69.44,93.02,2021,Asia,41.0091982,28.9662187
Belgrade,Serbia,109.96,36.0,61.46,53.31,42.63,19.77,35.96,63.79,84.14,2021,Europe,44.8178131,20.4568974
Quito,Ecuador,109.35,28.61,40.67,67.79,43.95,12.44,43.48,65.94,98.97,2021,Latin America,-0.2201641,-78.5123274
Porto Alegre,Brazil,109.24,30.18,24.98,62.47,31.9,16.43,31.98,56.43,98.74,2021,Latin America,-30.0324999,-51.2303767
Minsk,Belarus,108.97,33.31,38.25,45.77,32.06,17.38,30.1,41.4,64.37,2021,Europe,53.9024716,27.5618225
Kharkiv,Ukraine,108.8,29.85,51.61,47.27,30.15,10.25,37.82,56.2,65.35,2021,Europe,49.9923181,36.2310146
Kuwait City,Kuwait,108.35,65.32,68.26,59.01,49.37,16.45,32.57,66.86,20.22,2021,Asia,29.3797091,47.9735629
Kuala Lumpur,Malaysia,107.95,61.95,35.12,67.14,42.05,10.53,41.67,66.79,56.55,2021,Asia,3.1516964,101.6942371
Rome,Italy,107.81,49.38,47.87,59.25,78.79,17.53,41.98,66.63,93.7,2021,Europe,41.8933203,12.4829321
Odessa (Odesa),Ukraine,107.37,32.49,46.09,50.68,31.05,11.39,36.03,64.15,79.0,2021,Europe,46.48590215,30.68363780440557
Kiev (Kyiv),Ukraine,106.75,37.94,53.37,55.99,31.92,12.3,43.0,65.76,69.95,2021,Europe,50.4485578,30.52716228586082
Panama City,Panama,106.27,31.02,53.25,58.68,58.57,12.37,35.0,64.69,67.84,2021,Latin America,30.1600827,-85.6545729
Gurgaon,India,105.95,74.93,42.54,64.55,33.07,7.42,38.24,91.82,59.87,2021,Asia,28.42826235,77.00270014657752
Buenos Aires,Argentina,105.73,35.29,37.42,68.31,39.24,24.61,47.9,52.06,98.28,2021,Latin America,-34.6075682,-58.4370894
Chennai,India,105.04,47.64,59.78,71.6,26.24,13.7,48.05,74.92,53.22,2021,Asia,13.0836939,80.270186
Lahore,Pakistan,104.53,25.58,60.44,64.72,22.52,12.72,33.67,78.79,67.56,2021,Asia,31.5656822,74.3141829
Saint Petersburg,Russia,104.52,39.15,60.57,59.11,36.35,16.34,47.53,62.3,60.64,2021,Europe,59.938732,30.316229
Baku,Azerbaijan,103.9,26.64,69.62,43.68,32.64,16.32,37.25,76.96,91.4,2021,Asia,40.3754434,49.8326748
Moscow,Russia,103.85,46.47,61.23,63.33,41.46,21.12,51.39,57.5,55.83,2021,Europe,55.7504461,37.6174943
Santiago,Chile,103.18,33.23,44.83,66.04,50.62,18.69,36.8,70.28,90.21,2021,Latin America,-33.4377756,-70.6504502
Belo Horizonte,Brazil,102.62,23.6,36.21,62.64,32.09,22.64,43.74,52.66,98.5,2021,Latin America,-19.9227318,-43.9450948
Skopje,North Macedonia,102.57,32.82,56.53,56.35,37.41,13.46,28.6,82.92,76.3,2021,Europe,41.9960924,21.4316495
Hong Kong,Hong Kong,99.34,62.45,78.27,66.34,79.94,45.19,42.28,67.3,83.64,2021,Asia,22.2793278,114.1628131
Guatemala City,Guatemala,96.29,25.36,37.72,61.9,46.22,13.79,48.19,72.38,99.89,2021,Latin America,14.6222328,-90.5185188
Dnipro,Ukraine,96.1,31.8,46.63,51.29,29.12,9.64,32.44,82.27,69.52,2021,Europe,48.4680221,35.0417711
Hanoi,Vietnam,96.08,29.72,62.59,55.53,37.54,17.96,28.89,89.25,79.04,2021,Asia,21.0294498,105.8544441
Noida,India,94.12,55.12,39.97,66.78,28.62,7.1,44.96,92.72,58.9,2021,Asia,28.5707841,77.3271074
Shenzhen,China,93.96,54.71,67.21,57.76,50.82,46.28,37.68,62.54,81.8,2021,Asia,22.5445741,114.0545429
Tirana,Albania,90.85,27.43,61.08,48.78,42.12,16.21,39.93,87.89,86.43,2021,Europe,41.3281482,19.8184435
Shanghai,China,90.2,55.93,65.68,60.82,52.41,36.03,48.68,77.4,83.64,2021,Asia,31.2322758,121.4692071
Kolkata,India,89.26,38.32,52.18,58.48,26.64,10.87,60.64,78.0,60.9,2021,Asia,22.5414185,88.35769124388872
Yekaterinburg,Russia,88.41,44.67,52.92,50.88,31.88,9.68,38.53,76.86,21.33,2021,Europe,56.839104,60.60825
Mexico City,Mexico,88.33,38.15,30.75,65.08,40.52,13.9,51.61,83.05,92.37,2021,Latin America,19.4326296,-99.1331785
Kathmandu,Nepal,87.75,20.59,64.25,56.76,31.19,20.59,37.18,95.85,92.64,2021,Asia,27.708317,85.3205817
Novosibirsk,Russia,87.24,34.9,53.43,54.58,31.93,11.2,40.09,69.33,16.14,2021,Europe,55.0282171,82.9234509
Beirut,Lebanon,86.88,24.92,53.04,65.65,83.64,16.67,40.05,93.58,94.74,2021,Asia,33.88922645,35.50255852895232
Casablanca,Morocco,86.39,30.74,44.83,44.06,39.81,15.36,48.09,82.87,98.08,2021,Africa,33.5675527,-7.618756606822727
Karachi,Pakistan,84.79,27.68,45.54,57.59,22.18,12.88,41.96,89.68,71.32,2021,Asia,24.8546842,67.0207055
Bogota,Colombia,84.46,22.7,37.19,64.48,33.34,25.86,51.13,69.93,97.12,2021,Latin America,4.6533326,-74.083652
Almaty,Kazakhstan,84.39,34.62,34.2,47.85,29.98,11.6,36.49,78.44,58.3,2021,Asia,43.2363924,76.9457275
Sao Paulo,Brazil,84.25,32.87,29.62,58.1,36.55,17.77,50.76,79.73,99.04,2021,Latin America,-23.5506507,-46.6333824
Bangkok,Thailand,83.58,29.56,58.92,77.48,55.44,28.74,45.34,76.82,58.39,2021,Asia,13.7525438,100.4934734
Lima,Peru,79.92,27.12,30.05,58.59,39.21,16.67,50.14,84.44,97.69,2021,Latin America,-12.0621065,-77.0365256
Recife,Brazil,79.56,21.26,23.91,61.94,31.66,19.06,45.97,70.33,79.28,2021,Latin America,-8.0584933,-34.8848193
Cairo,Egypt,78.42,21.95,50.03,44.97,32.37,13.16,50.46,91.82,88.45,2021,Africa,30.0443879,31.2357257
Colombo,Sri Lanka,76.87,20.02,59.86,71.74,34.32,33.97,63.18,60.71,59.11,2021,Asia,6.9387469,79.8541134
Caracas,Venezuela,75.32,15.58,15.32,38.92,50.63,15.38,35.94,73.56,99.93,2021,Latin America,10.506098,-66.9146017
Mumbai,India,75.06,41.38,56.85,65.92,30.21,34.45,55.04,82.67,71.48,2021,Asia,19.0759899,72.8773928
Ho Chi Minh City,Vietnam,74.93,26.55,45.76,59.48,38.98,22.15,31.36,92.68,63.44,2021,Asia,10.7715512,106.6983801
Beijing,China,74.81,56.38,66.13,65.04,47.82,41.7,45.9,84.91,57.64,2021,Asia,39.906217,116.3912757
Nairobi,Kenya,74.39,25.44,39.32,56.62,38.51,25.2,57.67,80.2,99.79,2021,Africa,-1.2832533,36.8172449
Delhi,India,74.05,41.99,40.82,67.23,28.03,17.79,57.18,90.74,58.9,2021,Asia,28.6517178,77.2219388
Rio de Janeiro,Brazil,69.67,23.67,22.48,43.78,33.45,23.61,52.07,67.47,88.22,2021,Latin America,-22.9110137,-43.2093727
Jakarta,Indonesia,65.68,23.94,46.39,56.73,43.38,23.92,53.03,84.39,63.76,2021,Asia,-6.1753942,106.827183
Dhaka,Bangladesh,54.06,23.06,35.06,40.75,34.95,17.68,59.47,92.77,71.29,2021,Asia,23.7861979,90.4026151
Lagos,Nigeria,49.48,9.82,35.18,46.63,35.7,15.25,66.74,88.13,60.75,2021,Africa,6.4550575,3.3941795
Tehran,Iran,43.18,15.54,46.1,52.53,39.97,45.95,52.9,81.54,70.99,2021,Asia,35.6892523,51.3896004
Manila,Philippines,41.43,18.0,35.61,62.6,43.58,37.15,55.12,89.94,61.23,2021,Asia,14.5948914,120.9782618
Canberra,Australia,213.79,117.59,80.68,81.95,75.16,5.08,23.7,14.23,82.72,2020,Oceania,-35.2975906,149.1012676
Raleigh,United States,210.54,145.3,68.11,75.66,69.8,2.73,32.41,20.9,83.88,2020,North America,35.7803977,-78.6390989
Adelaide,Australia,210.18,116.12,71.31,80.19,68.4,4.05,23.58,19.46,94.96,2020,Oceania,-34.9281805,138.5999312
Wellington,New Zealand,205.06,106.71,71.39,74.84,70.47,6.06,27.68,13.3,97.68,2020,Oceania,-41.2887953,174.7772114
Columbus,United States,200.44,142.17,58.21,73.46,70.5,1.89,25.98,25.13,71.29,2020,North America,39.9622601,-83.0007065
Madison,United States,200.18,124.31,70.27,78.83,64.67,3.35,23.73,17.61,51.64,2020,North America,43.074761,-89.3837613
Zurich,Switzerland,199.15,126.9,83.17,73.52,128.29,8.23,34.36,17.29,81.48,2020,Europe,47.3744489,8.5410422
Brisbane,Australia,198.88,119.03,66.22,82.1,72.8,5.49,40.64,21.43,98.07,2020,Oceania,-27.4689682,153.0234991
Charlotte,United States,197.91,144.29,56.89,74.47,72.4,2.46,36.38,27.24,84.05,2020,North America,35.2272086,-80.8430827
Austin,United States,194.86,145.76,64.46,70.4,67.79,3.58,34.37,35.47,82.08,2020,North America,30.2711286,-97.7436995
Eindhoven,Netherlands,194.78,102.23,74.91,72.13,73.79,5.79,25.76,22.24,85.38,2020,Europe,51.4392648,5.478633
San Diego,United States,191.83,130.19,63.72,70.69,74.22,5.22,33.63,34.94,97.08,2020,North America,32.7174202,-117.1627728
Ottawa,Canada,189.58,119.69,75.48,74.92,68.64,4.64,32.2,19.83,44.46,2020,North America,45.4211435,-75.6900574
The Hague (Den Haag),Netherlands,189.39,93.31,74.86,75.86,72.37,6.32,32.97,23.8,90.61,2020,Europe,52.0799838,4.3113461
Victoria,Canada,189.24,89.41,68.05,69.93,71.67,7.65,29.25,14.88,92.52,2020,North America,48.4283182,-123.3649533
Copenhagen,Denmark,187.68,90.7,76.48,78.33,86.23,9.29,28.65,20.78,83.74,2020,Europe,55.6867243,12.5700724
Kansas City,United States,187.36,134.63,40.84,78.94,69.17,1.86,26.18,32.48,75.08,2020,North America,39.100105,-94.5781416
Dallas,United States,186.28,155.3,50.64,65.72,68.03,2.24,34.22,42.87,81.85,2020,North America,32.7762719,-96.7968559
Seattle,United States,186.0,133.43,53.5,73.79,85.77,5.62,42.17,28.41,91.73,2020,North America,47.6038321,-122.3300624
Tampa,United States,184.79,126.19,50.46,67.91,67.1,2.81,35.84,28.3,84.67,2020,North America,27.9477595,-82.458444
Vienna,Austria,184.49,83.16,76.99,78.78,65.64,13.9,26.55,18.44,81.77,2020,Europe,48.2083537,16.3725042
Luxembourg,Luxembourg,184.36,106.31,70.88,73.73,83.71,11.34,33.66,21.15,82.62,2020,Europe,49.6112768,6.129799
Reykjavik,Iceland,184.14,81.07,77.96,67.0,100.85,6.58,20.34,15.26,68.81,2020,Europe,64.145981,-21.9422367
Edinburgh,United Kingdom,184.11,89.95,69.47,80.68,69.94,8.86,27.17,26.16,84.01,2020,Europe,55.9533456,-3.1883749
Helsinki,Finland,184.06,93.13,77.8,77.11,72.36,12.08,32.23,12.65,62.79,2020,Europe,60.1674881,24.9427473
Perth,Australia,183.8,101.51,57.04,77.57,73.92,6.89,36.92,23.27,95.71,2020,Oceania,-31.9558964,115.8605801
Calgary,Canada,181.89,124.35,67.76,77.17,70.66,4.72,30.59,24.81,33.09,2020,North America,51.0460954,-114.065465
Jacksonville,United States,181.76,120.9,43.25,74.38,74.57,2.03,33.94,31.18,87.81,2020,North America,30.3321838,-81.655651
Portland,United States,181.59,112.82,52.11,72.88,78.63,4.33,33.38,29.57,89.56,2020,North America,45.5202471,-122.6741949
San Jose,United States,180.7,143.48,57.53,70.49,78.64,6.59,38.14,47.94,95.53,2020,North America,37.3361905,-121.890583
Cincinnati,United States,180.59,131.81,50.76,68.63,61.64,2.22,24.89,42.82,73.24,2020,North America,39.1014537,-84.5124602
Dusseldorf,Germany,179.5,99.57,69.1,74.69,66.98,10.98,29.83,31.43,86.37,2020,Europe,51.2254018,6.7763137
Munich,Germany,178.99,95.97,82.61,78.09,72.19,16.9,33.54,24.55,75.98,2020,Europe,48.1371079,11.5753822
Geneva,Switzerland,178.95,111.16,71.47,67.89,118.98,10.5,25.97,30.83,82.61,2020,Europe,46.2017559,6.1466014
Belfast,United Kingdom,178.32,92.87,59.4,71.22,61.85,4.63,37.91,26.29,90.84,2020,Europe,54.596391,-5.9301829
San Antonio,United States,177.89,116.4,53.41,72.4,65.78,2.31,31.55,39.81,80.58,2020,North America,29.4246002,-98.4951405
Minneapolis,United States,177.45,127.18,50.96,79.01,76.7,2.95,36.72,27.01,49.46,2020,North America,44.9772995,-93.2654692
Melbourne,Australia,177.3,104.73,56.08,75.11,72.4,9.72,40.16,25.6,94.3,2020,Oceania,-37.8142176,144.9631608
Valencia,Spain,176.93,76.62,74.86,82.6,51.95,7.48,27.24,43.75,93.84,2020,Europe,39.4697065,-0.3763353
Pittsburgh,United States,176.92,123.08,63.53,72.38,73.61,1.99,38.31,42.85,72.13,2020,North America,40.4416941,-79.9900861
Reno,United States,176.51,116.1,55.35,62.24,73.85,3.49,24.89,29.9,62.28,2020,North America,39.5261206,-119.8126581
Sydney,Australia,176.28,97.02,66.1,77.28,79.08,11.44,42.71,27.22,97.07,2020,Oceania,-33.8698439,151.2082848
Sacramento,United States,174.97,115.4,50.21,68.0,77.0,3.72,26.64,43.44,90.64,2020,North America,38.5810606,-121.493895
Boston,United States,174.91,112.39,64.37,75.3,82.88,7.81,44.86,26.61,71.73,2020,North America,42.3602534,-71.0582912
Rotterdam,Netherlands,174.82,91.72,64.5,76.81,69.68,6.76,28.36,39.33,87.89,2020,Europe,51.9244424,4.47775
Nashville,United States,174.31,122.67,53.26,64.26,73.19,2.99,38.14,38.08,83.02,2020,North America,36.1622767,-86.7742984
Hamburg,Germany,174.15,102.73,56.02,75.61,71.24,9.77,32.48,29.46,82.75,2020,Europe,53.550341,10.000654
Saint Louis,United States,174.12,126.33,30.84,80.95,70.78,1.89,26.95,40.03,74.75,2020,North America,38.6264256,-90.1995853
Frankfurt,Germany,174.0,104.48,59.78,73.71,69.78,10.15,25.11,38.58,84.72,2020,Europe,50.1106444,8.6820917
Tallinn,Estonia,173.94,71.09,77.74,71.34,52.53,9.34,26.57,23.17,64.28,2020,Europe,59.4372155,24.7453688
Gothenburg,Sweden,173.74,88.86,54.8,68.77,71.18,10.58,24.2,19.12,77.49,2020,Europe,57.7072326,11.9670171
Cambridge,United Kingdom,173.66,78.11,77.89,73.79,72.24,12.96,28.87,32.83,91.37,2020,Europe,52.2055314,0.1186637
Tucson,United States,173.18,105.2,50.09,59.75,72.12,2.81,29.5,25.95,72.66,2020,North America,32.2228765,-110.9748477
Cork,Ireland,172.94,80.68,68.05,57.24,76.86,5.88,34.3,23.2,89.78,2020,Europe,51.897077,-8.4654674
Glasgow,United Kingdom,172.45,96.55,56.52,81.02,65.85,7.65,34.41,35.48,84.78,2020,Europe,55.8609825,-4.2488787
Vancouver,Canada,171.69,88.95,63.71,74.9,73.91,14.34,37.1,23.71,91.15,2020,North America,49.2608724,-123.113952
Denver,United States,171.42,130.33,59.11,70.1,73.3,4.21,36.75,40.73,56.28,2020,North America,39.7392364,-104.9848623
Stuttgart,Germany,170.71,103.84,73.54,70.6,67.71,10.11,35.54,42.31,81.07,2020,Europe,48.7784485,9.1800132
Atlanta,United States,170.58,140.47,37.8,65.86,73.89,2.87,42.36,43.98,89.73,2020,North America,33.7489924,-84.3902644
Edmonton,Canada,169.63,108.08,57.96,78.28,69.55,3.92,29.31,28.6,32.11,2020,North America,53.535411,-113.507996
Leeds,United Kingdom,169.51,102.24,57.03,82.2,64.83,6.46,32.61,47.6,84.59,2020,Europe,53.7974185,-1.5437941
Washington,United States,168.66,130.25,43.72,70.23,87.74,4.42,41.97,39.62,81.62,2020,North America,38.8950368,-77.0365427
Muscat,Oman,168.47,82.7,77.81,58.77,51.07,8.62,21.04,37.77,67.22,2020,Asia,23.61515,58.5912467
Anchorage,United States,167.96,118.44,38.88,60.62,91.36,2.53,27.64,17.23,41.61,2020,North America,61.2163129,-149.894852
Orlando,United States,167.92,102.08,47.84,63.52,65.7,3.2,37.06,34.53,87.23,2020,North America,28.5421109,-81.3790304
Ljubljana,Slovenia,167.88,63.88,78.76,65.78,54.79,13.32,28.03,23.88,76.11,2020,Europe,46.0500268,14.5069289
Oakland,United States,167.76,113.6,35.33,78.75,86.51,6.39,37.96,37.44,96.4,2020,North America,37.8044557,-122.2713563
Amsterdam,Netherlands,167.69,84.42,66.9,68.9,78.93,12.06,30.07,31.88,87.45,2020,Europe,52.3727598,4.8936041
Salt Lake City,United States,167.38,129.35,69.18,70.14,64.76,4.06,33.93,62.5,66.52,2020,North America,40.7596198,-111.8867975
Abu Dhabi,United Arab Emirates,167.25,93.34,88.67,70.47,62.75,6.03,26.39,47.61,43.89,2020,Asia,24.4538352,54.3774014
Bristol,United Kingdom,167.11,91.03,63.1,73.54,73.17,8.81,28.54,44.05,88.51,2020,Europe,51.47091115,-2.579033402570841
San Francisco,United States,166.86,135.9,47.21,66.88,91.51,7.78,49.72,42.73,97.26,2020,North America,37.7790262,-122.419906
Mangalore,India,166.08,58.91,75.86,80.14,23.49,7.44,32.14,35.75,66.65,2020,Asia,12.8698101,74.8430082
Auckland,New Zealand,165.38,83.93,54.54,73.43,76.06,12.09,37.96,29.19,99.89,2020,Oceania,-36.852095,174.7631803
Houston,United States,165.28,141.31,36.65,71.11,65.13,2.12,41.42,55.77,85.53,2020,North America,29.7589382,-95.3676974
Vilnius,Lithuania,165.02,62.96,72.35,69.44,44.46,12.1,27.81,23.79,66.59,2020,Europe,54.6870458,25.2829111
Tokyo,Japan,164.53,89.7,77.36,81.12,86.87,13.97,39.79,42.52,85.26,2020,Asia,35.6828387,139.7594549
Halifax,Canada,164.12,80.05,58.68,70.51,72.33,7.61,30.15,22.8,58.99,2020,North America,44.648618,-63.5859487
Indianapolis,United States,163.46,110.02,43.1,69.88,66.34,2.3,29.4,44.58,69.92,2020,North America,39.7683331,-86.1583502
Baltimore,United States,163.37,125.24,26.77,76.44,74.29,2.42,31.78,48.05,81.24,2020,North America,39.2908816,-76.610759
Cologne,Germany,163.06,97.84,58.61,73.56,65.13,10.46,36.93,41.48,84.85,2020,Europe,50.938361,6.959974
Berlin,Germany,162.9,98.66,58.99,69.29,64.76,10.84,33.93,40.91,83.35,2020,Europe,52.5170365,13.3888599
Stockholm,Sweden,162.52,92.18,55.6,67.54,76.09,14.18,37.56,17.74,69.67,2020,Europe,59.3251172,18.0710935
Bursa,Turkey,162.32,44.65,74.12,77.49,35.3,5.4,33.68,43.42,93.39,2020,Asia,40.1827657,29.0677305
Montreal,Canada,162.11,96.64,71.12,64.05,67.37,6.98,39.76,32.36,52.37,2020,North America,45.5031824,-73.5698065
Brno,Czech Republic,160.84,65.52,73.67,74.47,46.01,11.68,25.79,43.3,78.17,2020,Europe,49.1922443,16.6113382
Oslo,Norway,160.74,86.47,63.36,74.85,101.66,11.65,32.51,26.08,59.99,2020,Europe,59.9133301,10.7389701
Doha,Qatar,160.43,107.64,88.52,73.24,63.96,5.94,29.86,61.38,36.03,2020,Asia,25.2856329,51.5264162
Kaunas,Lithuania,160.36,57.01,62.38,73.03,44.6,10.44,24.41,28.08,68.94,2020,Europe,54.8982139,23.9044817
Honolulu,United States,159.86,88.29,56.55,70.71,89.7,9.32,41.45,37.16,95.33,2020,North America,21.2890997,-157.717299
Las Vegas,United States,158.86,127.88,44.91,55.96,67.46,2.75,26.81,50.04,57.4,2020,North America,36.1672559,-115.148516
Zagreb,Croatia,158.51,57.46,77.65,63.08,50.13,12.67,33.21,32.45,82.19,2020,Europe,45.8131847,15.9771774
Prague,Czech Republic,157.46,66.41,75.5,73.46,49.03,17.65,32.5,36.48,80.67,2020,Europe,50.0596288,14.446459273258007
Lyon,France,157.22,83.25,57.46,77.0,73.49,9.67,33.9,46.7,88.51,2020,Europe,45.7578137,4.8320114
Miami,United States,157.18,100.26,47.51,64.37,74.16,4.79,43.29,40.71,85.69,2020,North America,25.7741728,-80.19362
Antwerp,Belgium,156.82,88.7,65.36,80.03,70.98,5.81,36.8,60.77,85.42,2020,Europe,51.2211097,4.3997081
Dubai,United Arab Emirates,156.74,92.69,82.95,66.48,66.81,4.95,39.32,50.81,50.27,2020,Asia,25.2653471,55.2924914
Phoenix,United States,155.66,127.26,48.12,66.53,67.41,2.85,32.17,57.24,53.76,2020,North America,33.4484367,-112.074141
Hamilton,Canada,155.59,103.16,51.19,81.92,64.24,6.3,34.56,51.58,61.06,2020,North America,43.2560802,-79.8728583
Porto,Portugal,154.38,45.61,63.13,75.1,49.77,13.15,29.0,37.57,96.61,2020,Europe,41.1494512,-8.6107884
Limassol,Cyprus,153.24,62.76,69.4,47.89,61.98,8.63,19.19,49.82,95.74,2020,Asia,34.6852901,33.0332657
Madrid,Spain,152.58,73.65,69.76,79.27,58.25,12.98,35.29,53.25,85.47,2020,Europe,40.4167047,-3.7035825
Chicago,United States,152.44,113.52,36.56,68.27,80.18,3.7,41.77,41.98,66.11,2020,North America,41.8755616,-87.6244212
Cluj-Napoca,Romania,152.38,53.79,80.31,64.63,36.44,12.87,29.05,43.33,74.35,2020,Europe,46.769379,23.5899542
Birmingham,United Kingdom,151.9,86.59,42.99,73.36,67.42,7.78,32.95,47.71,87.66,2020,Europe,52.4796992,-1.9026911
Gdansk,Poland,151.55,62.65,72.03,57.78,41.4,12.05,29.61,40.23,75.51,2020,Europe,54.36119285,18.62860883362069
Lisbon,Portugal,150.28,46.27,72.38,71.4,51.87,18.36,36.37,36.17,98.59,2020,Europe,38.7077507,-9.1365919
Bratislava,Slovakia,150.03,63.85,69.78,58.57,48.27,12.87,31.04,41.27,80.72,2020,Europe,48.1516988,17.1093063
Tel Aviv-Yafo,Israel,149.84,74.31,74.55,73.57,86.36,19.65,36.85,46.77,93.88,2020,Asia,32.0852997,34.7818064
Philadelphia,United States,149.58,100.23,39.74,70.47,78.84,3.68,40.0,49.5,77.98,2020,North America,39.9527237,-75.1635262
Timisoara,Romania,149.44,55.77,76.04,69.09,35.55,9.91,24.73,60.07,82.05,2020,Europe,45.7538355,21.2257474
Jeddah (Jiddah),Saudi Arabia,148.44,95.05,69.64,57.13,49.99,2.74,29.65,70.13,66.17,2020,Asia,21.48371595,39.17290852271105
Manchester,United Kingdom,147.28,88.2,46.74,78.16,68.25,8.75,40.72,53.52,86.95,2020,Europe,53.4794892,-2.2451148
Brussels,Belgium,146.45,94.14,50.04,74.29,72.33,6.3,36.43,63.21,83.85,2020,Europe,50.8465573,4.351697
Winnipeg,Canada,146.16,100.67,43.24,69.16,63.69,4.74,31.97,36.78,24.67,2020,North America,49.8955367,-97.1384584
Riga,Latvia,145.14,53.64,61.73,61.17,49.29,9.25,33.87,38.15,74.7,2020,Europe,56.9493977,24.1051846
Poznan,Poland,144.88,59.55,75.8,60.91,40.28,10.83,31.04,54.94,77.41,2020,Europe,52.4006632,16.91973259178088
Riyadh,Saudi Arabia,144.85,90.01,73.14,63.65,48.18,3.59,30.13,66.78,44.45,2020,Asia,24.638916,46.7160104
Toronto,Canada,144.47,77.6,61.63,75.6,78.49,13.91,44.69,37.95,65.35,2020,North America,43.6534817,-79.3839347
Regina,Canada,144.46,95.08,44.51,68.15,68.19,4.97,17.17,41.21,14.28,2020,North America,50.44876,-104.61731
Singapore,Singapore,144.39,88.96,69.43,70.84,81.1,22.31,41.31,33.48,57.45,2020,Asia,1.2899175,103.8519072
Los Angeles,United States,144.24,113.78,54.93,64.85,76.55,7.22,59.45,62.86,95.5,2020,North America,34.0536909,-118.242766
Nizhny Novgorod,Russia,143.82,37.07,70.43,77.99,39.1,11.54,28.9,34.03,45.51,2020,Europe,56.3264816,44.0051395
Sharjah,United Arab Emirates,143.77,84.08,83.35,58.16,52.81,4.93,51.76,49.74,43.35,2020,Asia,25.3575436,55.3882729
Taipei,Taiwan,143.04,67.1,85.8,86.58,64.3,33.1,33.56,49.71,84.38,2020,Asia,25.0375198,121.5636796
Cape Town,South Africa,142.59,68.48,26.95,70.52,44.74,7.81,43.59,37.7,98.19,2020,Africa,-33.928992,18.417396
Izmir,Turkey,142.31,41.05,72.94,71.98,33.31,8.65,38.47,60.68,96.88,2020,Asia,38.4224548,27.1310699
New York,United States,141.93,100.0,55.56,65.05,100.0,10.76,43.01,54.25,79.66,2020,North America,40.7127281,-74.0060152
Bologna,Italy,141.32,60.44,55.72,77.03,70.03,10.49,32.52,55.73,88.12,2020,Europe,44.4938203,11.3426327
Barcelona,Spain,141.12,67.72,55.75,77.49,58.73,12.81,30.52,64.22,95.73,2020,Europe,41.3828939,2.1774322
Nicosia,Cyprus,140.77,55.5,70.11,52.24,62.73,6.97,26.15,59.59,86.01,2020,Asia,35.1748976,33.3638568
Dublin,Ireland,140.68,76.58,50.8,51.11,79.17,9.47,40.26,40.36,85.89,2020,Europe,53.3497645,-6.2602732
Varna,Bulgaria,140.33,47.17,68.98,63.02,36.76,8.31,27.42,61.36,85.08,2020,Europe,43.2073873,27.9166653
Wroclaw,Poland,139.1,60.51,72.86,61.33,41.2,10.81,33.33,60.91,78.39,2020,Europe,51.1263106,16.97819633051261
Minsk,Belarus,137.42,37.84,75.72,61.69,36.2,14.97,30.89,41.51,64.37,2020,Europe,53.9024716,27.5618225
Durban,South Africa,137.28,72.57,19.28,58.08,40.04,3.56,26.48,53.53,95.61,2020,Africa,-29.861825,31.009909
Warsaw,Poland,136.91,63.0,74.51,61.2,44.09,13.73,35.2,58.74,74.61,2020,Europe,52.2319581,21.0067249
Novi Sad,Serbia,136.65,41.27,59.37,47.58,35.52,15.04,16.36,44.72,84.02,2020,Europe,45.2551338,19.8451756
Islamabad,Pakistan,135.76,30.28,71.37,63.88,22.95,13.41,35.66,44.55,76.91,2020,Asia,33.6938118,73.0651511
Curitiba,Brazil,135.61,32.89,36.25,66.0,40.02,14.66,30.29,32.2,99.6,2020,Latin America,-25.4295963,-49.2712724
Pretoria,South Africa,133.42,82.94,18.37,67.3,46.95,2.28,45.5,57.12,95.83,2020,Africa,-25.7459277,28.1879101
Ankara,Turkey,131.65,44.22,59.57,68.04,35.07,6.35,36.63,68.04,91.49,2020,Asia,39.9207886,32.8540482
Iasi,Romania,131.39,48.35,72.69,57.58,36.08,10.25,33.79,61.38,73.04,2020,Europe,47.1615341,27.5836142
San Juan,Puerto Rico,130.73,79.99,30.46,60.97,70.11,4.62,38.71,50.47,71.25,2020,Latin America,18.465299,-66.116666
Seoul,South Korea,130.23,76.81,72.44,81.54,85.5,24.01,41.65,58.13,68.39,2020,Asia,37.5666791,126.9782914
Krakow (Cracow),Poland,130.22,60.85,73.63,61.52,41.28,12.97,31.32,71.11,73.86,2020,Europe,50.047136,19.8896389
Turin,Italy,129.84,67.34,48.02,69.31,66.7,9.56,29.46,69.63,85.66,2020,Europe,45.0677551,7.6824892
Campinas,Brazil,129.75,41.34,32.52,60.59,41.06,10.8,28.52,46.6,98.87,2020,Latin America,-22.90556,-47.06083
Detroit,United States,126.13,78.58,27.38,64.02,63.85,1.7,46.45,52.94,66.03,2020,North America,42.3315509,-83.0466403
Thessaloniki,Greece,125.31,40.48,61.59,56.25,56.26,11.45,27.11,64.51,88.39,2020,Europe,40.6403167,22.9352716
Monterrey,Mexico,125.26,56.33,48.28,63.63,38.74,5.94,31.28,72.3,80.37,2020,Latin America,25.6802019,-100.315258
Pune,India,124.53,63.72,61.99,67.18,27.63,10.73,44.06,72.12,74.32,2020,Asia,18.521428,73.8544541
Sofia,Bulgaria,124.37,55.8,57.82,56.22,39.96,9.19,31.37,68.71,76.01,2020,Europe,42.6978634,23.3221789
Chiang Mai,Thailand,124.09,33.9,77.76,84.45,46.64,17.68,27.4,77.09,75.93,2020,Asia,18.7882778,98.9858802
Johannesburg,South Africa,123.81,72.71,19.31,61.09,45.6,3.54,40.75,62.02,91.38,2020,Africa,-26.205,28.049722
Montevideo,Uruguay,123.59,40.38,43.08,66.42,51.63,15.25,40.11,49.33,98.04,2020,Latin America,-34.9058916,-56.1913095
Athens,Greece,122.98,45.51,51.37,55.63,57.21,11.59,37.9,57.95,95.18,2020,Europe,37.9839412,23.7283052
Coimbatore,India,122.61,45.16,63.49,70.47,24.22,12.61,49.76,62.25,78.1,2020,Asia,11.0018115,76.9628425
Budapest,Hungary,121.8,52.11,63.66,46.9,43.4,15.95,38.74,54.18,78.41,2020,Europe,47.4979937,19.0403594
Hyderabad,India,120.31,57.9,58.55,68.2,25.32,8.6,43.7,76.41,73.54,2020,Asia,17.360589,78.4740613
Milan,Italy,119.96,57.5,57.44,70.8,76.77,18.76,36.78,66.94,88.12,2020,Europe,45.4641943,9.1896346
Quito,Ecuador,119.55,39.03,44.72,69.77,43.85,11.08,40.64,65.31,98.97,2020,Latin America,-0.2201641,-78.5123274
London,United Kingdom,119.54,78.16,47.52,68.52,81.3,21.21,45.27,60.51,88.25,2020,Europe,51.5073219,-0.1276474
Lviv,Ukraine,119.28,32.25,57.53,58.65,32.6,13.12,33.83,53.63,69.61,2020,Europe,49.841952,24.0315921
Bucharest,Romania,118.56,52.76,72.6,54.34,39.23,10.9,42.08,74.88,75.61,2020,Europe,44.4361414,26.1027202
Yerevan,Armenia,118.26,28.3,78.01,52.87,33.04,17.73,31.11,56.65,63.42,2020,Asia,40.1776245,44.5126174
Guadalajara,Mexico,117.43,44.3,37.66,77.53,36.15,9.72,41.55,70.45,92.83,2020,Latin America,20.6720375,-103.338396
Medellin,Colombia,117.13,29.9,48.66,77.28,30.19,17.9,38.29,64.89,99.76,2020,Latin America,6.2443382,-75.573553
Paris,France,116.89,71.17,48.24,77.14,85.16,22.02,42.58,66.29,88.39,2020,Europe,48.8588897,2.3200410217200766
Ahmedabad,India,115.09,38.52,68.24,71.9,25.58,9.65,38.31,72.39,49.27,2020,Asia,23.0216238,72.5797068
Bangalore,India,114.89,68.14,51.32,66.79,27.22,9.73,53.3,83.15,89.39,2020,Asia,12.9767936,77.590082
Gurgaon,India,114.61,91.58,43.32,67.48,30.28,7.04,38.83,91.72,59.87,2020,Asia,28.42826235,77.00270014657752
Rome,Italy,113.78,58.91,48.12,59.2,70.38,15.95,42.95,66.44,93.7,2020,Europe,41.8933203,12.4829321
Tbilisi,Georgia,112.68,26.69,79.51,52.16,28.27,14.69,38.36,74.99,84.2,2020,Asia,41.6934591,44.8014495
Santiago,Chile,112.37,43.04,49.06,66.38,45.17,15.69,37.04,70.91,90.21,2020,Latin America,-33.4377756,-70.6504502
Istanbul,Turkey,112.1,38.23,52.52,68.15,38.01,11.28,52.22,69.79,93.02,2020,Asia,41.0091982,28.9662187
San Jose,Costa Rica,111.98,39.08,43.73,63.15,58.48,9.44,65.58,53.8,99.48,2020,Latin America,9.9325427,-84.0795782
Amman,Jordan,111.22,32.73,61.42,64.99,56.7,9.37,43.92,76.89,89.05,2020,Asia,31.9515694,35.9239625
Sarajevo,Bosnia And Herzegovina,111.07,42.48,51.08,52.92,38.63,13.81,28.68,70.01,78.18,2020,Europe,43.8519774,18.3866868
Buenos Aires,Argentina,110.51,46.67,38.69,69.04,34.58,26.09,47.46,51.9,98.28,2020,Latin America,-34.6075682,-58.4370894
Porto Alegre,Brazil,110.36,34.27,23.46,62.2,39.49,15.21,32.26,56.38,98.74,2020,Latin America,-30.0324999,-51.2303767
Belgrade,Serbia,109.27,35.96,62.62,52.94,39.05,22.0,35.68,62.85,84.14,2020,Europe,44.8178131,20.4568974
Kharkiv,Ukraine,108.44,31.45,52.34,46.01,33.33,11.21,38.16,55.32,65.35,2020,Europe,49.9923181,36.2310146
Panama City,Panama,108.25,35.25,52.85,57.83,57.2,11.97,34.98,64.26,67.84,2020,Latin America,30.1600827,-85.6545729
Guatemala City,Guatemala,107.71,40.18,37.39,63.63,44.26,9.89,50.11,69.66,99.89,2020,Latin America,14.6222328,-90.5185188
Kuwait City,Kuwait,107.63,73.68,67.44,55.75,52.12,14.56,32.94,72.53,20.22,2020,Asia,29.3797091,47.9735629
Saint Petersburg,Russia,107.08,45.39,60.64,59.13,41.71,15.38,47.91,62.63,60.64,2020,Europe,59.938732,30.316229
Kuala Lumpur,Malaysia,107.03,67.27,34.42,65.04,42.47,11.16,42.23,68.15,56.55,2020,Asia,3.1516964,101.6942371
Kiev (Kyiv),Ukraine,106.9,40.15,52.83,55.16,36.16,11.88,43.04,65.91,69.95,2020,Europe,50.4485578,30.52716228586082
Chennai,India,106.57,53.06,59.85,71.62,25.32,14.37,47.45,75.53,53.22,2020,Asia,13.0836939,80.270186
Odessa (Odesa),Ukraine,106.48,32.33,47.11,51.78,35.09,12.16,35.67,65.32,79.0,2020,Europe,46.48590215,30.68363780440557
Lahore,Pakistan,106.45,28.44,62.57,64.54,23.42,11.42,35.44,79.6,67.56,2020,Asia,31.5656822,74.3141829
Skopje,North Macedonia,104.21,38.4,55.27,56.17,34.54,13.37,28.6,83.36,76.3,2020,Europe,41.9960924,21.4316495
Moscow,Russia,102.48,52.28,59.46,61.08,47.65,20.23,52.63,59.84,55.83,2020,Europe,55.7504461,37.6174943
Baku,Azerbaijan,101.26,29.84,69.85,43.02,31.31,16.62,40.27,80.09,91.4,2020,Asia,40.3754434,49.8326748
Beirut,Lebanon,100.32,40.99,55.83,66.53,62.83,14.67,38.33,93.11,94.74,2020,Asia,33.88922645,35.50255852895232
Hong Kong,Hong Kong,99.05,65.32,79.3,66.08,77.22,47.46,41.46,67.69,83.64,2020,Asia,22.2793278,114.1628131
Dnipro,Ukraine,97.86,35.53,48.59,50.94,32.7,10.15,31.72,82.38,69.52,2020,Europe,48.4680221,35.0417711
Noida,India,97.59,66.87,39.58,65.3,27.63,6.8,46.38,92.92,58.9,2020,Asia,28.5707841,77.3271074
Belo Horizonte,Brazil,95.95,23.54,34.46,61.22,38.07,26.28,44.3,53.66,98.5,2020,Latin America,-19.9227318,-43.9450948
Hanoi,Vietnam,91.59,28.99,61.75,54.1,39.88,19.24,29.59,91.27,79.04,2020,Asia,21.0294498,105.8544441
Kolkata,India,90.84,45.38,52.78,58.05,24.37,12.14,60.11,78.88,60.9,2020,Asia,22.5414185,88.35769124388872
Mexico City,Mexico,89.41,42.91,31.55,64.64,38.55,15.07,51.09,83.57,92.37,2020,Latin America,19.4326296,-99.1331785
Bogota,Colombia,89.11,28.87,38.37,64.95,33.16,24.88,51.32,69.19,97.12,2020,Latin America,4.6533326,-74.083652
Yekaterinburg,Russia,87.47,45.4,52.89,50.64,38.46,11.0,38.03,75.96,21.33,2020,Europe,56.839104,60.60825
Bangkok,Thailand,87.38,34.04,58.83,77.47,57.15,27.23,44.38,76.44,58.39,2020,Asia,13.7525438,100.4934734
Almaty,Kazakhstan,86.6,37.38,32.41,49.73,31.73,12.09,33.03,78.15,58.3,2020,Asia,43.2363924,76.9457275
Novosibirsk,Russia,86.11,37.4,53.14,54.26,37.09,11.82,41.08,69.66,16.14,2020,Europe,55.0282171,82.9234509
Karachi,Pakistan,83.94,29.27,44.8,58.44,23.07,14.28,41.62,89.88,71.32,2020,Asia,24.8546842,67.0207055
Kathmandu,Nepal,83.63,21.07,65.86,55.43,30.92,24.77,38.29,95.65,92.64,2020,Asia,27.708317,85.3205817
Delhi,India,82.88,54.69,41.81,66.8,28.18,14.04,57.02,91.33,58.9,2020,Asia,28.6517178,77.2219388
Shanghai,China,82.55,54.4,63.69,61.52,50.07,41.49,48.14,79.46,83.64,2020,Asia,31.2322758,121.4692071
Colombo,Sri Lanka,82.09,22.63,60.88,71.54,34.3,29.38,65.7,60.1,59.11,2020,Asia,6.9387469,79.8541134
Lima,Peru,81.82,31.7,30.95,57.35,42.59,15.75,49.73,85.44,97.69,2020,Latin America,-12.0621065,-77.0365256
Cairo,Egypt,79.48,24.53,50.43,44.96,30.94,12.49,51.1,92.82,88.45,2020,Africa,30.0443879,31.2357257
Sao Paulo,Brazil,78.38,31.97,29.02,56.53,45.52,20.68,51.51,80.32,99.04,2020,Latin America,-23.5506507,-46.6333824
Rio de Janeiro,Brazil,74.2,33.01,22.59,42.59,42.7,20.62,52.44,68.45,88.22,2020,Latin America,-22.9110137,-43.2093727
Nairobi,Kenya,73.29,24.85,39.92,56.46,42.08,26.17,56.94,80.42,99.79,2020,Africa,-1.2832533,36.8172449
Ho Chi Minh City,Vietnam,72.96,26.64,46.94,59.88,38.2,24.63,31.66,92.98,63.44,2020,Asia,10.7715512,106.6983801
Beijing,China,72.5,60.72,65.5,63.7,44.89,44.18,45.15,86.96,57.64,2020,Asia,39.906217,116.3912757
Jakarta,Indonesia,71.38,27.34,46.63,56.78,44.48,19.93,52.59,84.25,63.76,2020,Asia,-6.1753942,106.827183
Mumbai,India,66.89,41.68,57.6,67.24,28.84,43.08,56.09,82.94,71.48,2020,Asia,19.0759899,72.8773928
Dhaka,Bangladesh,62.2,33.45,35.49,40.61,34.52,14.21,57.5,93.78,71.29,2020,Asia,23.7861979,90.4026151
Manila,Philippines,57.73,25.14,35.63,62.6,38.99,24.17,55.33,89.79,61.23,2020,Asia,14.5948914,120.9782618
Tehran,Iran,54.73,18.83,46.49,51.84,41.67,34.8,53.09,82.39,70.99,2020,Asia,35.6892523,51.3896004
Lagos,Nigeria,53.15,13.28,35.07,49.35,36.56,15.43,66.38,86.12,60.75,2020,Africa,6.4550575,3.3941795
Caracas,Venezuela,0.0,2.36,15.1,39.28,27.68,150.55,34.69,72.41,99.93,2020,Latin America,10.506098,-66.9146017
Canberra,Australia,224.3,146.53,78.66,79.91,69.73,5.44,22.93,13.95,82.72,2019,Oceania,-35.2975906,149.1012676
Eindhoven,Netherlands,216.39,127.31,74.89,85.62,71.79,4.48,21.38,18.52,85.38,2019,Europe,51.4392648,5.478633
Raleigh,United States,216.05,160.35,69.43,74.93,70.06,2.58,33.51,21.59,83.88,2019,North America,35.7803977,-78.6390989
Adelaide,Australia,206.65,126.41,67.84,74.2,67.47,4.43,29.75,19.67,94.96,2019,Oceania,-34.9281805,138.5999312
Zurich,Switzerland,204.42,139.94,81.73,75.0,126.87,9.46,33.63,15.94,81.48,2019,Europe,47.3744489,8.5410422
Madison,United States,204.36,136.4,72.41,79.58,63.48,3.3,23.88,20.78,51.64,2019,North America,43.074761,-89.3837613
Brisbane,Australia,202.9,130.82,65.7,82.21,69.78,6.5,41.0,20.8,98.07,2019,Oceania,-27.4689682,153.0234991
Wellington,New Zealand,201.96,107.79,71.02,72.85,72.36,7.32,27.33,15.21,97.68,2019,Oceania,-41.2887953,174.7772114
Columbus,United States,195.88,127.33,57.64,75.28,65.79,2.31,25.21,24.37,71.29,2019,North America,39.9622601,-83.0007065
Charlotte,United States,195.85,145.53,54.83,75.0,75.63,2.4,38.02,28.22,84.05,2019,North America,35.2272086,-80.8430827
Ottawa,Canada,194.97,130.21,75.58,74.58,65.19,4.82,32.53,17.93,44.46,2019,North America,45.4211435,-75.6900574
Victoria,Canada,194.79,99.83,68.01,72.13,67.22,7.74,27.05,16.28,92.52,2019,North America,48.4283182,-123.3649533
Copenhagen,Denmark,194.51,109.33,76.17,77.12,84.59,8.85,28.89,21.47,83.74,2019,Europe,55.6867243,12.5700724
Perth,Australia,194.31,130.69,56.33,77.13,73.61,6.35,37.18,24.86,95.71,2019,Oceania,-31.9558964,115.8605801
Luxembourg,Luxembourg,193.24,112.79,74.51,78.1,89.64,10.69,33.65,17.15,82.62,2019,Europe,49.6112768,6.129799
Vienna,Austria,193.07,98.23,77.45,79.05,69.12,12.73,24.76,16.99,80.35,2019,Europe,48.2083537,16.3725042
San Diego,United States,192.68,136.48,63.82,71.77,72.67,6.01,36.81,34.82,97.08,2019,North America,32.7174202,-117.1627728
Austin,United States,192.57,143.76,65.4,70.58,69.94,4.03,35.07,36.97,82.01,2019,North America,30.2711286,-97.7436995
San Jose,United States,192.57,172.52,58.04,68.83,76.36,6.1,34.42,50.85,95.53,2019,North America,37.3361905,-121.890583
Quebec City,Canada,190.79,131.85,85.28,67.14,64.5,3.56,30.52,33.25,47.98,2019,North America,46.8183175,-71.2143518
Edinburgh,United Kingdom,190.43,102.18,69.13,80.38,69.5,8.7,27.66,23.54,84.01,2019,Europe,55.9533456,-3.1883749
Reykjavik,Iceland,190.37,93.11,79.29,67.66,102.2,6.45,20.04,14.73,68.81,2019,Europe,64.145981,-21.9422367
Dallas,United States,188.66,158.15,50.48,66.33,66.95,2.36,36.14,39.8,81.85,2019,North America,32.7762719,-96.7968559
Munich,Germany,188.48,110.33,83.02,80.66,73.37,16.11,33.16,22.08,75.98,2019,Europe,48.1371079,11.5753822
Seattle,United States,188.21,139.2,55.32,72.51,84.16,6.16,42.99,27.96,91.73,2019,North America,47.6038321,-122.3300624
Geneva,Switzerland,187.84,126.36,72.11,69.92,118.87,10.34,24.81,29.44,82.61,2019,Europe,46.2017559,6.1466014
Portland,United States,187.61,123.51,54.77,70.31,74.93,4.93,33.22,27.19,89.56,2019,North America,45.5202471,-122.6741949
Cork,Ireland,186.62,100.71,69.84,54.61,72.43,4.48,32.73,18.41,89.78,2019,Europe,51.897077,-8.4654674
Helsinki,Finland,186.4,105.32,77.42,73.93,78.33,12.39,32.08,13.01,62.79,2019,Europe,60.1674881,24.9427473
San Antonio,United States,186.37,135.39,53.89,69.24,61.87,2.24,29.19,39.4,80.58,2019,North America,29.4246002,-98.4951405
Kansas City,United States,185.36,135.13,39.77,75.25,68.81,2.08,24.54,33.71,75.08,2019,North America,39.100105,-94.5781416
Gothenburg,Sweden,185.31,112.94,56.49,71.1,71.49,10.65,23.85,18.99,77.49,2019,Europe,57.7072326,11.9670171
Spokane,United States,185.17,121.07,49.35,59.86,65.35,3.18,24.17,18.67,67.12,2019,North America,47.6571934,-117.4235106
Jacksonville,United States,185.15,133.31,41.71,74.83,69.0,2.03,35.19,32.56,87.81,2019,North America,30.3321838,-81.655651
Sacramento,United States,183.61,131.2,51.41,70.71,77.76,3.71,26.58,42.46,90.64,2019,North America,38.5810606,-121.493895
Melbourne,Australia,183.33,120.94,55.67,75.18,72.11,9.14,39.22,27.63,94.3,2019,Oceania,-37.8142176,144.9631608
Glasgow,United Kingdom,183.26,110.77,55.14,84.35,64.25,6.05,36.27,30.0,84.78,2019,Europe,55.8609825,-4.2488787
Calgary,Canada,183.08,131.66,68.61,76.24,68.4,5.23,32.89,25.35,33.09,2019,North America,51.0460954,-114.065465
Tampa,United States,182.85,123.8,52.2,66.69,70.46,3.18,36.33,28.93,84.67,2019,North America,27.9477595,-82.458444
Oakland,United States,182.68,134.28,35.89,80.4,84.24,6.14,32.36,33.78,96.4,2019,North America,37.8044557,-122.2713563
Stuttgart,Germany,181.75,121.8,74.78,71.98,66.6,10.05,32.05,41.15,81.07,2019,Europe,48.7784485,9.1800132
Minneapolis,United States,181.51,125.9,51.28,80.03,75.33,3.11,33.38,23.49,49.46,2019,North America,44.9772995,-93.2654692
The Hague (Den Haag),Netherlands,181.01,93.16,70.58,78.68,76.41,7.32,42.0,25.89,90.61,2019,Europe,52.0799838,4.3113461
Boston,United States,181.01,121.89,66.79,75.6,82.68,8.48,43.36,25.29,71.73,2019,North America,42.3602534,-71.0582912
Saint Louis,United States,180.96,137.4,32.84,79.39,66.77,2.38,27.5,36.42,74.75,2019,North America,38.6264256,-90.1995853
Salt Lake City,United States,179.53,144.68,74.8,70.19,63.38,3.63,34.72,58.0,66.52,2019,North America,40.7596198,-111.8867975
Sydney,Australia,178.92,120.47,61.46,72.76,78.39,11.02,43.7,31.13,97.07,2019,Oceania,-33.8698439,151.2082848
Cincinnati,United States,178.51,126.99,48.93,68.5,63.48,2.4,26.61,39.77,73.24,2019,North America,39.1014537,-84.5124602
Mississauga,Canada,178.41,121.14,56.41,68.16,65.05,8.23,30.81,22.41,58.72,2019,North America,43.5896231,-79.6443879
Rotterdam,Netherlands,178.32,104.49,63.89,81.3,70.59,6.69,30.35,42.48,87.89,2019,Europe,51.9244424,4.47775
Albuquerque,United States,178.03,122.06,31.37,72.22,64.2,3.05,26.44,22.54,67.06,2019,North America,35.0841034,-106.650985
Valencia,Spain,178.01,86.91,69.84,82.1,54.06,7.66,27.1,43.76,93.84,2019,Europe,39.4697065,-0.3763353
Hamburg,Germany,177.64,108.24,53.39,78.98,72.84,9.76,31.36,28.2,82.75,2019,Europe,53.550341,10.000654
Nashville,United States,177.5,134.42,52.04,62.05,67.5,3.09,35.71,40.64,83.02,2019,North America,36.1622767,-86.7742984
Cologne,Germany,177.21,125.17,58.71,76.91,67.19,9.21,37.95,39.53,84.85,2019,Europe,50.938361,6.959974
Bristol,United Kingdom,176.87,111.48,60.41,73.24,69.07,8.16,27.91,41.55,88.51,2019,Europe,51.47091115,-2.579033402570841
San Francisco,United States,175.88,134.05,51.03,71.19,91.67,9.26,44.56,35.15,97.26,2019,North America,37.7790262,-122.419906
Tallinn,Estonia,175.51,75.29,79.48,70.65,52.8,9.65,28.56,22.23,64.28,2019,Europe,59.4372155,24.7453688
Tucson,United States,175.03,115.99,48.47,59.18,67.99,2.62,32.16,27.0,72.66,2019,North America,32.2228765,-110.9748477
Leeds,United Kingdom,175.02,113.13,57.38,83.89,65.1,6.8,32.13,46.94,84.59,2019,Europe,53.7974185,-1.5437941
Kelowna,Canada,174.26,105.57,51.81,71.3,66.99,5.36,29.3,23.34,59.65,2019,North America,49.8879177,-119.4959025
Dubai,United Arab Emirates,174.04,133.54,82.96,66.51,55.09,3.85,39.72,52.5,50.27,2019,Asia,25.2653471,55.2924914
Amsterdam,Netherlands,173.29,96.16,65.52,70.74,80.88,11.31,30.93,30.77,87.45,2019,Europe,52.3727598,4.8936041
Frankfurt,Germany,172.95,119.06,55.88,72.39,70.81,11.07,27.46,41.88,84.72,2019,Europe,50.1106444,8.6820917
Edmonton,Canada,172.9,119.88,58.28,78.08,65.23,4.44,30.59,29.8,32.11,2019,North America,53.535411,-113.507996
Orlando,United States,172.42,115.68,44.49,65.3,69.38,2.96,37.08,34.29,87.23,2019,North America,28.5421109,-81.3790304
Abu Dhabi,United Arab Emirates,172.29,106.6,89.03,68.74,62.64,5.78,26.53,47.52,43.89,2019,Asia,24.4538352,54.3774014
Halifax,Canada,172.05,96.73,57.89,71.09,68.86,6.11,28.86,24.38,58.99,2019,North America,44.648618,-63.5859487
Auckland,New Zealand,171.51,96.88,54.0,74.91,76.98,11.81,37.84,28.62,99.89,2019,Oceania,-36.852095,174.7631803
Vancouver,Canada,171.25,91.45,63.71,73.76,67.88,16.18,37.32,23.17,91.15,2019,North America,49.2608724,-123.113952
Ljubljana,Slovenia,171.22,72.81,77.24,63.55,54.94,13.38,25.4,24.13,77.14,2019,Europe,46.0500268,14.5069289
Tokyo,Japan,171.18,102.66,83.49,80.65,88.45,13.39,40.61,44.65,85.26,2019,Asia,35.6828387,139.7594549
Pittsburgh,United States,171.14,109.13,63.99,74.87,74.79,2.21,39.5,43.59,72.13,2019,North America,40.4416941,-79.9900861
Houston,United States,171.0,146.52,39.09,72.27,63.62,2.2,42.21,52.36,85.53,2019,North America,29.7589382,-95.3676974
Atlanta,United States,169.9,145.47,36.37,64.21,72.26,2.93,44.22,44.7,89.73,2019,North America,33.7489924,-84.3902644
Denver,United States,169.82,126.76,57.85,70.96,70.72,4.79,35.21,41.23,56.28,2019,North America,39.7392364,-104.9848623
Gent,Belgium,168.62,90.1,75.08,83.72,73.71,9.04,43.13,45.07,88.72,2019,Europe,51.0538286,3.7250121
Muscat,Oman,168.09,88.69,75.47,58.96,48.92,10.54,18.61,39.54,67.22,2019,Asia,23.61515,58.5912467
Baltimore,United States,167.98,125.36,28.75,80.29,75.24,2.59,32.74,43.88,81.24,2019,North America,39.2908816,-76.610759
Mangalore,India,167.93,69.57,74.58,78.31,23.25,14.16,32.2,27.21,66.65,2019,Asia,12.8698101,74.8430082
Hamilton,Canada,167.55,125.58,52.83,82.51,59.71,6.22,35.81,48.53,61.06,2019,North America,43.2560802,-79.8728583
Doha,Qatar,167.25,135.96,87.83,72.29,58.9,5.69,31.66,66.84,36.03,2019,Asia,25.2856329,51.5264162
Indianapolis,United States,166.91,116.83,44.83,68.96,67.05,2.26,30.83,43.11,69.92,2019,North America,39.7683331,-86.1583502
Berlin,Germany,166.8,104.74,60.19,70.27,68.62,10.53,33.21,40.63,83.35,2019,Europe,52.5170365,13.3888599
Washington,United States,166.58,126.08,42.72,71.58,91.99,4.85,41.63,39.26,81.62,2019,North America,38.8950368,-77.0365427
Oslo,Norway,166.49,100.91,61.61,73.43,101.9,10.91,33.48,24.32,59.99,2019,Europe,59.9133301,10.7389701
Stockholm,Sweden,166.45,104.0,52.82,68.13,78.75,14.42,37.16,16.73,69.67,2019,Europe,59.3251172,18.0710935
Gdansk,Poland,164.78,72.35,68.23,60.51,41.65,10.35,28.17,28.58,75.51,2019,Europe,54.36119285,18.62860883362069
Brno,Czech Republic,164.58,75.19,73.26,76.22,46.0,11.45,24.99,45.2,78.17,2019,Europe,49.1922443,16.6113382
Bursa,Turkey,164.45,43.84,76.42,79.35,36.02,5.84,35.23,40.65,93.39,2019,Asia,40.1827657,29.0677305
Montreal,Canada,164.39,107.95,68.15,62.49,62.47,7.16,41.17,32.0,52.37,2019,North America,45.5031824,-73.5698065
Honolulu,United States,164.22,101.03,56.22,69.92,95.67,8.66,42.52,36.85,95.33,2019,North America,21.2890997,-157.717299
Zagreb,Croatia,162.04,64.64,75.68,65.5,51.12,11.49,33.75,32.48,81.82,2019,Europe,45.8131847,15.9771774
Chicago,United States,161.24,133.36,35.36,68.37,77.75,3.54,40.99,41.03,66.11,2019,North America,41.8755616,-87.6244212
Phoenix,United States,159.55,143.14,46.51,66.79,65.88,2.8,30.51,61.42,53.76,2019,North America,33.4484367,-112.074141
Limassol,Cyprus,159.43,80.0,68.28,49.66,58.16,8.19,17.06,53.94,95.74,2019,Asia,34.6852901,33.0332657
Prague,Czech Republic,159.16,73.39,74.05,73.1,48.4,17.69,33.46,36.13,80.67,2019,Europe,50.0596288,14.446459273258007
Milwaukee,United States,158.89,102.27,34.71,66.46,70.22,2.95,30.2,31.8,60.96,2019,North America,43.0349931,-87.922497
Vilnius,Lithuania,158.85,60.43,70.82,66.75,48.26,13.24,28.37,26.05,66.59,2019,Europe,54.6870458,25.2829111
Las Vegas,United States,158.08,133.59,44.3,54.41,67.81,2.78,28.19,52.12,57.4,2019,North America,36.1672559,-115.148516
Antwerp,Belgium,157.9,94.55,64.93,77.22,72.18,6.01,36.67,60.27,85.42,2019,Europe,51.2211097,4.3997081
Birmingham,United Kingdom,157.35,96.21,44.32,73.74,63.07,7.97,36.29,44.4,87.66,2019,Europe,52.4796992,-1.9026911
Singapore,Singapore,156.91,103.77,78.53,70.3,69.79,21.56,42.15,32.29,57.45,2019,Asia,1.2899175,103.8519072
Philadelphia,United States,156.51,118.48,41.91,72.54,80.19,3.31,41.92,51.82,77.98,2019,North America,39.9527237,-75.1635262
Porto,Portugal,155.43,53.2,58.54,73.75,50.98,12.81,28.69,36.85,96.61,2019,Europe,41.1494512,-8.6107884
Cluj-Napoca,Romania,155.06,54.22,78.84,65.44,37.81,13.49,27.2,39.21,74.35,2019,Europe,46.769379,23.5899542
Tel Aviv-Yafo,Israel,153.09,86.31,68.99,72.6,78.46,20.43,37.74,43.66,93.88,2019,Asia,32.0852997,34.7818064
Miami,United States,151.75,86.92,47.09,64.04,80.45,5.91,43.02,37.91,85.69,2019,North America,25.7741728,-80.19362
Nizhny Novgorod,Russia,151.74,39.18,75.71,83.88,38.57,11.86,26.32,32.45,45.51,2019,Europe,56.3264816,44.0051395
Toronto,Canada,151.16,87.38,64.37,74.84,80.68,13.07,42.53,37.94,65.35,2019,North America,43.6534817,-79.3839347
Brussels,Belgium,150.85,96.71,50.6,78.16,75.45,6.91,32.43,62.51,83.85,2019,Europe,50.8465573,4.351697
Madrid,Spain,150.74,79.59,64.85,78.58,60.48,12.26,35.24,56.28,85.47,2019,Europe,40.4167047,-3.7035825
Los Angeles,United States,150.65,113.47,52.87,65.87,78.2,7.72,47.16,60.35,95.5,2019,North America,34.0536909,-118.242766
Regina,Canada,150.64,107.97,44.18,67.16,65.69,4.66,18.15,38.94,14.28,2019,North America,50.44876,-104.61731
Riyadh,Saudi Arabia,150.49,113.49,70.52,64.25,49.42,3.18,30.13,71.23,44.45,2019,Asia,24.638916,46.7160104
Poznan,Poland,149.89,65.78,73.45,63.94,39.58,10.46,31.0,51.92,77.41,2019,Europe,52.4006632,16.91973259178088
Bratislava,Slovakia,149.82,70.0,69.72,58.37,48.4,12.4,30.38,46.29,80.72,2019,Europe,48.1516988,17.1093063
Lisbon,Portugal,149.54,51.16,69.22,70.76,53.67,18.0,35.45,38.41,98.59,2019,Europe,38.7077507,-9.1365919
Haifa,Israel,148.51,91.12,67.46,74.59,73.82,11.16,30.33,73.48,93.57,2019,Asia,32.8191218,34.9983856
Winnipeg,Canada,147.68,107.75,44.61,68.47,60.44,4.91,32.36,39.3,24.67,2019,North America,49.8955367,-97.1384584
Manchester,United Kingdom,147.53,96.52,44.19,77.7,67.68,9.09,40.57,55.62,86.95,2019,Europe,53.4794892,-2.2451148
Dublin,Ireland,146.98,90.73,49.55,49.67,77.39,10.57,38.06,37.87,85.89,2019,Europe,53.3497645,-6.2602732
Cape Town,South Africa,146.52,73.9,29.94,71.62,43.17,8.4,44.4,36.7,98.19,2019,Africa,-33.928992,18.417396
Seoul,South Korea,146.19,96.41,65.51,84.01,82.78,20.67,42.15,47.26,68.39,2019,Asia,37.5666791,126.9782914
Manama,Bahrain,145.76,70.89,74.51,64.37,55.95,8.25,29.71,57.5,64.31,2019,Asia,26.2235041,50.5822436
Timisoara,Romania,144.87,53.69,74.82,64.19,37.26,11.4,25.73,58.57,82.05,2019,Europe,45.7538355,21.2257474
Warsaw,Poland,144.58,73.97,73.41,62.64,42.64,12.14,36.31,55.62,74.61,2019,Europe,52.2319581,21.0067249
Riga,Latvia,143.82,55.47,62.62,58.3,50.37,9.84,32.69,40.01,74.7,2019,Europe,56.9493977,24.1051846
Islamabad,Pakistan,143.6,46.21,67.12,64.1,23.14,9.45,30.88,48.8,76.91,2019,Asia,33.6938118,73.0651511
Minsk,Belarus,143.39,45.98,77.01,60.11,33.4,14.1,28.62,40.88,64.37,2019,Europe,53.9024716,27.5618225
Brasilia,Brazil,143.16,63.18,36.25,49.14,47.05,11.62,29.66,32.6,98.97,2019,Latin America,-10.3333333,-53.2
Jeddah (Jiddah),Saudi Arabia,143.15,102.74,61.98,55.97,49.58,3.33,33.2,72.73,66.17,2019,Asia,21.48371595,39.17290852271105
Durban,South Africa,142.35,87.84,20.23,51.43,39.96,3.27,27.62,51.4,95.61,2019,Africa,-29.861825,31.009909
Nicosia,Cyprus,142.27,60.65,70.67,49.65,64.65,7.98,21.94,60.66,86.01,2019,Asia,35.1748976,33.3638568
Barcelona,Spain,141.85,76.02,57.25,75.36,60.2,13.81,31.03,65.83,95.73,2019,Europe,41.3828939,2.1774322
San Juan,Puerto Rico,141.26,101.61,30.44,60.33,66.46,3.78,38.42,49.28,71.25,2019,Latin America,18.465299,-66.116666
Wroclaw,Poland,141.01,67.54,70.04,61.85,41.02,10.2,33.2,61.49,78.39,2019,Europe,51.1263106,16.97819633051261
Izmir,Turkey,140.65,43.44,72.47,71.92,35.24,9.12,39.22,62.65,96.88,2019,Asia,38.4224548,27.1310699
Taipei,Taiwan,139.63,57.09,84.14,85.38,63.09,32.23,31.5,49.9,84.38,2019,Asia,25.0375198,121.5636796
New York,United States,138.86,100.0,55.78,63.49,100.0,11.66,42.53,57.08,79.66,2019,North America,40.7127281,-74.0060152
Varna,Bulgaria,137.25,48.85,68.24,60.89,38.52,8.96,30.28,61.76,85.08,2019,Europe,43.2073873,27.9166653
Curitiba,Brazil,134.85,38.68,35.58,64.25,40.63,14.31,31.14,35.05,99.6,2019,Latin America,-25.4295963,-49.2712724
Iasi,Romania,134.81,53.58,74.56,57.98,36.08,10.84,33.44,60.41,73.04,2019,Europe,47.1615341,27.5836142
Krakow (Cracow),Poland,134.79,69.33,71.16,62.38,40.43,11.75,30.69,70.43,73.86,2019,Europe,50.047136,19.8896389
Detroit,United States,133.44,100.19,28.16,63.75,60.04,1.72,47.43,55.17,66.03,2019,North America,42.3315509,-83.0466403
Novi Sad,Serbia,133.07,45.24,57.7,46.74,34.76,16.41,18.16,47.41,84.02,2019,Europe,45.2551338,19.8451756
Pretoria,South Africa,132.37,78.18,19.61,67.42,46.98,2.71,41.96,58.84,95.83,2019,Africa,-25.7459277,28.1879101
Thessaloniki,Greece,131.87,47.68,65.05,56.19,56.49,10.74,26.19,63.27,88.39,2019,Europe,40.6403167,22.9352716
Ankara,Turkey,130.16,49.39,58.65,66.99,34.29,6.91,36.32,71.58,91.49,2019,Asia,39.9207886,32.8540482
Monterrey,Mexico,130.02,65.93,48.63,63.13,34.98,6.86,31.3,70.05,80.37,2019,Latin America,25.6802019,-100.315258
Turin,Italy,129.74,79.05,42.69,67.22,68.64,9.02,30.31,71.44,85.66,2019,Europe,45.0677551,7.6824892
Johannesburg,South Africa,129.37,89.95,19.71,58.96,45.76,3.55,42.31,61.84,91.38,2019,Africa,-26.205,28.049722
Montevideo,Uruguay,128.79,53.54,44.88,64.95,56.67,12.88,40.0,52.76,98.04,2019,Latin America,-34.9058916,-56.1913095
Hyderabad,India,128.79,67.71,65.08,67.46,24.0,7.7,41.96,76.88,73.54,2019,Asia,17.360589,78.4740613
Bangalore,India,128.65,88.26,54.25,68.55,27.88,8.15,50.61,82.13,89.39,2019,Asia,12.9767936,77.590082
Pune,India,127.65,74.97,62.09,68.18,27.4,11.37,43.05,74.69,74.32,2019,Asia,18.521428,73.8544541
Coimbatore,India,127.62,53.91,64.86,70.26,22.31,10.52,51.95,62.69,78.1,2019,Asia,11.0018115,76.9628425
Milan,Italy,127.59,68.87,55.58,71.06,72.64,17.28,37.39,63.46,88.12,2019,Europe,45.4641943,9.1896346
Sofia,Bulgaria,127.34,61.3,55.71,54.15,40.17,8.87,30.16,66.1,76.01,2019,Europe,42.6978634,23.3221789
Athens,Greece,126.58,50.25,51.89,54.39,58.31,10.3,35.95,58.25,95.18,2019,Europe,37.9839412,23.7283052
Campinas,Brazil,126.21,47.43,32.83,61.57,46.77,11.9,34.06,49.73,98.87,2019,Latin America,-22.90556,-47.06083
Budapest,Hungary,126.07,57.54,63.49,46.68,45.56,14.83,37.9,52.74,78.41,2019,Europe,47.4979937,19.0403594
London,United Kingdom,125.67,92.76,48.52,67.85,81.4,20.83,47.03,59.65,88.25,2019,Europe,51.5073219,-0.1276474
Paris,France,125.09,89.27,47.98,74.82,84.27,19.12,42.64,67.71,88.39,2019,Europe,48.8588897,2.3200410217200766
Medellin,Colombia,122.75,35.97,53.92,76.71,30.53,16.83,38.16,65.36,99.76,2019,Latin America,6.2443382,-75.573553
Quito,Ecuador,122.49,43.73,46.72,69.51,46.52,11.56,39.96,64.44,98.97,2019,Latin America,-0.2201641,-78.5123274
Yerevan,Armenia,122.13,33.68,77.63,47.89,32.63,14.98,27.88,57.42,63.42,2019,Asia,40.1776245,44.5126174
Bucharest,Romania,120.77,57.53,72.26,53.69,39.6,11.08,41.53,73.87,75.61,2019,Europe,44.4361414,26.1027202
Guadalajara,Mexico,120.33,48.77,42.07,78.18,32.94,11.94,40.34,70.52,92.83,2019,Latin America,20.6720375,-103.338396
Ahmedabad,India,119.59,59.11,63.27,68.7,24.06,8.27,39.48,73.76,49.27,2019,Asia,23.0216238,72.5797068
Gurgaon,India,118.57,104.0,38.66,72.34,30.85,7.78,39.37,91.06,59.87,2019,Asia,28.42826235,77.00270014657752
Tbilisi,Georgia,117.95,34.58,80.24,52.67,28.47,12.89,36.09,77.04,84.2,2019,Asia,41.6934591,44.8014495
Santiago,Chile,116.18,52.15,49.54,66.8,50.62,14.45,38.53,71.19,90.21,2019,Latin America,-33.4377756,-70.6504502
Lviv,Ukraine,115.36,31.68,61.56,56.27,26.93,16.02,35.69,55.88,69.61,2019,Europe,49.841952,24.0315921
San Jose,Costa Rica,115.1,46.97,43.44,63.15,54.5,8.16,67.34,54.81,99.48,2019,Latin America,9.9325427,-84.0795782
Amman,Jordan,113.8,40.96,58.4,66.78,56.76,8.02,44.21,78.56,89.05,2019,Asia,31.9515694,35.9239625
Panama City,Panama,112.69,41.08,54.3,59.51,54.57,11.73,35.97,63.2,67.84,2019,Latin America,30.1600827,-85.6545729
Buenos Aires,Argentina,112.47,53.49,37.13,69.18,35.3,23.81,48.51,54.5,98.28,2019,Latin America,-34.6075682,-58.4370894
Belgrade,Serbia,112.44,38.01,62.75,54.78,39.3,22.21,34.73,60.9,84.14,2019,Europe,44.8178131,20.4568974
Porto Alegre,Brazil,111.77,40.95,21.96,61.13,42.38,13.34,32.54,58.64,98.68,2019,Latin America,-30.0324999,-51.2303767
